,Unnamed: 0,Road,Name,LRP,Offset,Chainage,LRP_2,Offset_2,Chainage_2,(Km),Heavy Truck,Medium Truck,Small Truck,Large Bus,Medium Bus,Micro Bus,Utility,Car,Auto Rickshaw,Motor Cycle,Bi-Cycle,Cycle Rickshaw,Cart,Motorized,Non Motorized,Total AADT,(AADT),base_road,condition,lat,lon,Type,Connected_Road1,Connected_Road2,Connected_Road3,Connected_Roads
0,1,N1-1R,Jatrabari - Int.with Z1101 (Left) (Right),LRPS,0.0,0.0,LRPS,822.0,0.822,0.822,660.0,6155.0,1554.0,2744.0,971.0,2120.0,480.0,2608.0,2508.0,436.0,213.0,1088.0,0.0,20236.0,1301.0,21537.0,21537.0,N1,,23.7060278,90.443333,Road,Z1101,,,
1,3,N1-2R,Int.with Z1101 - Signboard (Left) R111 (Right),LRPS,822.0,0.822,LRPS,4175.0,4.175,3.353,402.0,5842.0,1147.0,2842.0,526.0,2010.0,238.0,1851.0,2980.0,398.0,232.0,889.0,0.0,18236.0,1121.0,19357.0,19357.0,N1,,23.7027778,90.4504722,Road,Z1101,R111,,
2,4,,.,,,1.8,,,,,,,,,,,,,,,,,,,,,,N1,A,23.69873866,90.4588610799999,Bridge,,,,
3,6,N1-3R,Signboard - Shimrail (Left)R110 (Right),LRPS,4175.0,4.175,LRPS,7181.0,7.181,3.006,85.0,2544.0,2053.0,2412.0,1688.0,1564.0,298.0,1609.0,2157.0,1035.0,72.0,1140.0,0.0,15445.0,1212.0,16657.0,16657.0,N1,,23.6938052,90.4805271,Road,R110,,,
4,7,,.,,,4.925,,,,,,,,,,,,,,,,,,,,,,N1,A,23.6946638363636,90.4877749181818,Bridge,,,,
5,9,N1-4R,Shimrail - Katchpur (Left)N2 (Right),LRPS,7181.0,7.181,LRP009,260.0,8.763,1.582,153.0,2955.0,1566.0,2438.0,1456.0,1299.0,345.0,1948.0,2693.0,1143.0,517.0,1531.0,0.0,15996.0,2048.0,18044.0,18044.0,N1,,23.6979163,90.5092778,Road,N2,,,
6,11,N1-5R,Katchpur - Madanpur (Left)N105 (Right),LRP009,260.0,8.763,LRP012,439.0,11.936,3.173,153.0,4419.0,3221.0,2880.0,2408.0,2787.0,345.0,2105.0,3080.0,1143.0,517.0,1531.0,0.0,22541.0,2048.0,24589.0,24589.0,N1,,23.7060833,90.5215271,Road,N105,,,
7,12,,Kanch pur Bridge.,,,8.976,,,,,,,,,,,,,,,,,,,,,,N1,A,23.7050598925675,90.5232141463513,Bridge,,,,
8,13,,KANCHPUR PC GIRDER BRIDGE,,,8.976,,,,,,,,,,,,,,,,,,,,,,N1,C,23.7050598925675,90.5232141463513,Bridge,,,,
9,14,,KATCHPUR BOX CULVERT,,,10.543,,,,,,,,,,,,,,,,,,,,,,N1,B,23.6964000869109,90.5350989801047,Bridge,,,,
10,15,,NOYAPARA CULVERT,,,10.88,,,,,,,,,,,,,,,,,,,,,,N1,A,23.6943906141361,90.5375740774869,Bridge,,,,
11,16,,ADUPUR CULVERT,,,10.897,,,,,,,,,,,,,,,,,,,,,,N1,A,23.6943023869158,90.5377073719626,Bridge,,,,
12,17,,NAYABARI KASPUR BOX CULVERT,,,11.296,,,,,,,,,,,,,,,,,,,,,,N1,A,23.6923601518691,90.5409183897196,Bridge,,,,
13,18,,NAYABARI BOX CULVERT,,,11.808,,,,,,,,,,,,,,,,,,,,,,N1,B,23.6909119315151,90.5454624957575,Bridge,,,,
14,20,N1-6R,Madanpur - Langalband (Left)Z1061 (Right),LRP012,439.0,11.936,LRP013,3411.0,15.935,3.999,174.0,4965.0,3478.0,3296.0,2791.0,1751.0,249.0,1579.0,3154.0,1154.0,211.0,1077.0,0.0,22591.0,1288.0,23879.0,23879.0,N1,,23.6904163,90.546583,Road,Z1061,,,
15,21,,KHAS PARA BOX CULVERT,,,12.239,,,,,,,,,,,,,,,,,,,,,,N1,A,23.6884123260204,90.5485585290816,Bridge,,,,
16,22,,DAWAN BAG BOX CULVERT,,,12.253,,,,,,,,,,,,,,,,,,,,,,N1,A,23.6883197331632,90.548649807653,Bridge,,,,
17,23,,Madanpur Bridge.(L),,,12.66,,,,,,,,,,,,,,,,,,,,,,N1,A,23.685583027027,90.551207981081,Bridge,,,,
18,24,,MADAN PUR (R),,,12.66,,,,,,,,,,,,,,,,,,,,,,N1,A,23.685583027027,90.551207981081,Bridge,,,,
19,25,,MADANPUR BRIDGE(L),,,12.66,,,,,,,,,,,,,,,,,,,,,,N1,A,23.685583027027,90.551207981081,Bridge,,,,
20,26,,Madanpur Bridge(R),,,12.688,,,,,,,,,,,,,,,,,,,,,,N1,A,23.6853619779342,90.5513591765258,Bridge,,,,
21,27,,KAWTALA BOX CULVERT,,,13.574,,,,,,,,,,,,,,,,,,,,,,N1,A,23.6778035,90.5558194349999,Bridge,,,,
22,28,,MALIBAG BOX CULVERT,,,15.465,,,,,,,,,,,,,,,,,,,,,,N1,B,23.6633090696149,90.563856994797,Bridge,,,,
23,30,N1-7R,Langalband - Mograpara Chowrasta (Left)Z1089 (Right),LRP013,3411.0,15.935,LRP013,7520.0,20.044,4.109,174.0,4965.0,3478.0,3296.0,2791.0,1751.0,249.0,1579.0,3154.0,1154.0,211.0,1077.0,0.0,22591.0,1288.0,23879.0,23879.0,N1,,23.6604167,90.5671104,Road,Z1089,,,
24,31,,Langalbandh Bridge.,,,17.134,,,,,,,,,,,,,,,,,,,,,,N1,C,23.6544257051136,90.576730225,Bridge,,,,
25,32,,LANGOLBANDO PC GIDER BRIDGE,,,17.134,,,,,,,,,,,,,,,,,,,,,,N1,B,23.6544257051136,90.576730225,Bridge,,,,
26,33,,Darikandi Bridge (R),,,17.222,,,,,,,,,,,,,,,,,,,,,,N1,A,23.65397226,90.57741042,Bridge,,,,
27,34,,Darikandi Bridge (L),,,17.222,,,,,,,,,,,,,,,,,,,,,,N1,A,23.65397226,90.57741042,Bridge,,,,
28,35,,DARIKANDI BRIDGE (R),,,17.722,,,,,,,,,,,,,,,,,,,,,,N1,B,23.6515705663716,90.5814943946902,Bridge,,,,
29,36,,DARIKANDI BRIDGE (L),,,17.722,,,,,,,,,,,,,,,,,,,,,,N1,B,23.6515705663716,90.5814943946902,Bridge,,,,
30,37,,Sonakhal Bridge(L),,,18.093,,,,,,,,,,,,,,,,,,,,,,N1,A,23.6497543993548,90.5845490085483,Bridge,,,,
31,38,,SONARKALI BRIDGE(L),,,18.093,,,,,,,,,,,,,,,,,,,,,,N1,B,23.6497543993548,90.5845490085483,Bridge,,,,
32,39,,Sonakhal Bridge(R),,,18.093,,,,,,,,,,,,,,,,,,,,,,N1,B,23.6497543993548,90.5845490085483,Bridge,,,,
33,40,,SONARKALI BRIDGE(R),,,18.093,,,,,,,,,,,,,,,,,,,,,,N1,B,23.6497543993548,90.5845490085483,Bridge,,,,
34,41,,MOLLIK PARA BRIDGE (R),,,18.742,,,,,,,,,,,,,,,,,,,,,,N1,C,23.6459685949152,90.5892119813559,Bridge,,,,
35,42,,MOLLIK PARA P.C(L),,,18.742,,,,,,,,,,,,,,,,,,,,,,N1,B,23.6459685949152,90.5892119813559,Bridge,,,,
36,43,,Mollik para Bridge(R),,,18.742,,,,,,,,,,,,,,,,,,,,,,N1,B,23.6459685949152,90.5892119813559,Bridge,,,,
37,44,,Mollik para Bridge(L),,,18.742,,,,,,,,,,,,,,,,,,,,,,N1,B,23.6459685949152,90.5892119813559,Bridge,,,,
38,45,,KRIBORDI BOX CULVERT,,,19.76,,,,,,,,,,,,,,,,,,,,,,N1,A,23.6379543715384,90.5936673976923,Bridge,,,,
39,47,N1-8R,Mograpara(Int.with Z1089)-Meghna Bridge West End (Left) (Right),LRP013,7520.0,20.044,LRP022,1935.0,23.564,3.52,244.0,4999.0,1005.0,2019.0,684.0,1647.0,396.0,1961.0,1120.0,314.0,31.0,131.0,0.0,14389.0,162.0,14551.0,14551.0,N1,,23.6358608,90.5948052,Road,Z1089,,,
40,48,,SHADIPUR BOX CULVERT,,,20.397,,,,,,,,,,,,,,,,,,,,,,N1,B,23.63380522,90.597394085,Bridge,,,,
41,49,,Marikhali Bridge(L),,,21.184,,,,,,,,,,,,,,,,,,,,,,N1,A,23.6284668507692,90.6023015723077,Bridge,,,,
42,50,,Marikhali Bridge(R),,,21.184,,,,,,,,,,,,,,,,,,,,,,N1,A,23.6284668507692,90.6023015723077,Bridge,,,,
43,51,,MARIKHALL BRIDGE,,,21.184,,,,,,,,,,,,,,,,,,,,,,N1,A,23.6284668507692,90.6023015723077,Bridge,,,,
44,52,,SANGAKADI CULVERT,,,22.328,,,,,,,,,,,,,,,,,,,,,,N1,B,23.6198832229508,90.6083528852459,Bridge,,,,
45,53,,ASHIR CHAR (Right),,,22.596,,,,,,,,,,,,,,,,,,,,,,N1,A,23.6176407964705,90.6095506105882,Bridge,,,,
46,54,,ASHIR CHAR ( Left),,,22.596,,,,,,,,,,,,,,,,,,,,,,N1,B,23.6176407964705,90.6095506105882,Bridge,,,,
47,55,,Ashariarchar Bridge(L),,,22.596,,,,,,,,,,,,,,,,,,,,,,N1,B,23.6176407964705,90.6095506105882,Bridge,,,,
48,56,,Ashariarchar Bridge(R),,,22.596,,,,,,,,,,,,,,,,,,,,,,N1,B,23.6176407964705,90.6095506105882,Bridge,,,,
49,57,,Asharirchar-2 Bridge.(R),,,23.081,,,,,,,,,,,,,,,,,,,,,,N1,A,23.613587384385,90.6109029561497,Bridge,,,,
50,58,,Ashariachar-2 Bridge.(L),,,23.081,,,,,,,,,,,,,,,,,,,,,,N1,A,23.613587384385,90.6109029561497,Bridge,,,,
51,59,,ASHARIR CHAR (L),,,23.081,,,,,,,,,,,,,,,,,,,,,,N1,A,23.613587384385,90.6109029561497,Bridge,,,,
52,60,,ASHIR CHAR (R),,,23.081,,,,,,,,,,,,,,,,,,,,,,N1,B,23.613587384385,90.6109029561497,Bridge,,,,
53,62,N1-9R,Meghna Bridge Satrt-Bhaberchar (Left) z1063 (Right),LRP022,1935.0,23.564,LRP031,162.0,30.936,7.372,355.0,5314.0,1116.0,1401.0,726.0,1663.0,403.0,2137.0,1364.0,110.0,37.0,196.0,0.0,14589.0,233.0,14822.0,14822.0,N1,,23.6095556,90.6121944,Road,z1063,,,
54,63,,Meghna Bridge,,,24.393,,,,,,,,,,,,,,,,,,,,,,N1,A,23.6027595885583,90.6155316965675,Bridge,,,,
55,64,,MEGHNA BRIDGE,,,24.393,,,,,,,,,,,,,,,,,,,,,,N1,C,23.6027595885583,90.6155316965675,Bridge,,,,
56,65,,TATULTALA CULVERT,,,26.115,,,,,,,,,,,,,,,,,,,,,,N1,A,23.5929818827893,90.6279699370919,Bridge,,,,
57,66,,BAILAKANDI CULVERT,,,26.452,,,,,,,,,,,,,,,,,,,,,,N1,A,23.5908088547468,90.6302368598101,Bridge,,,,
58,67,,MALUAKANDI CULVEDRT,,,27.12,,,,,,,,,,,,,,,,,,,,,,N1,A,23.58631812254,90.6345094207093,Bridge,,,,
59,68,,Bhater char Bridge (L),,,28.315,,,,,,,,,,,,,,,,,,,,,,N1,A,23.5779800248475,90.6419193089939,Bridge,,,,
60,69,,Bhater char Bridge (R),,,28.315,,,,,,,,,,,,,,,,,,,,,,N1,A,23.5779800248475,90.6419193089939,Bridge,,,,
61,70,,BHATIR CHAR BRIDGE,,,28.315,,,,,,,,,,,,,,,,,,,,,,N1,A,23.5779800248475,90.6419193089939,Bridge,,,,
62,71,,Anarpara Bridge (L),,,29.138,,,,,,,,,,,,,,,,,,,,,,N1,A,23.5716306256965,90.6454159236842,Bridge,,,,
63,72,,Anarpara Bridge (R),,,29.138,,,,,,,,,,,,,,,,,,,,,,N1,A,23.5716306256965,90.6454159236842,Bridge,,,,
64,73,,ANARPUR BRIDGE(R),,,29.138,,,,,,,,,,,,,,,,,,,,,,N1,A,23.5716306256965,90.6454159236842,Bridge,,,,
65,74,,ANAR PURA BRIDGE(L),,,29.138,,,,,,,,,,,,,,,,,,,,,,N1,A,23.5716306256965,90.6454159236842,Bridge,,,,
66,75,,VITIKANDA - ANAR PUR CULVERT,,,29.842,,,,,,,,,,,,,,,,,,,,,,N1,A,23.5660033956521,90.6486237247282,Bridge,,,,
67,76,,Alipur bridge(R),,,30.908,,,,,,,,,,,,,,,,,,,,,,N1,A,23.5591910296296,90.6557475703703,Bridge,,,,
68,77,,Alipur bridge(L),,,30.908,,,,,,,,,,,,,,,,,,,,,,N1,A,23.5591910296296,90.6557475703703,Bridge,,,,
69,78,,ALI PURA P.C BRIDGE (RIGHT),,,30.908,,,,,,,,,,,,,,,,,,,,,,N1,A,23.5591910296296,90.6557475703703,Bridge,,,,
70,79,,ALIPURA BRIDGE (LEFT),,,30.908,,,,,,,,,,,,,,,,,,,,,,N1,B,23.5591910296296,90.6557475703703,Bridge,,,,
71,81,N1-10R,Bhaberchar(Int.with Z1063)-Daudkandi Bridge (Left) (Right),LRP031,162.0,30.936,LRP033,3664.0,36.271,5.335,244.0,4999.0,1005.0,2019.0,684.0,1647.0,396.0,1961.0,1120.0,314.0,31.0,131.0,0.0,14389.0,162.0,14551.0,14551.0,N1,,23.5590278,90.6559444,Road,Z1063,,,
72,82,,Bhaber char Bridge(R),,,31.472,,,,,,,,,,,,,,,,,,,,,,N1,A,23.5557082901265,90.6597414245569,Bridge,,,,
73,83,,Bhaber char Bridge(L),,,31.472,,,,,,,,,,,,,,,,,,,,,,N1,A,23.5557082901265,90.6597414245569,Bridge,,,,
74,84,,VOBAR CHAR (L),,,31.472,,,,,,,,,,,,,,,,,,,,,,N1,A,23.5557082901265,90.6597414245569,Bridge,,,,
75,85,,VOBAR CHAR BRIDGE(R),,,31.472,,,,,,,,,,,,,,,,,,,,,,N1,A,23.5557082901265,90.6597414245569,Bridge,,,,
76,86,,Baushia Bridge(R),,,32.121,,,,,,,,,,,,,,,,,,,,,,N1,A,23.5517421907216,90.6643538752577,Bridge,,,,
77,87,,Baushia Bridge(L),,,32.121,,,,,,,,,,,,,,,,,,,,,,N1,A,23.5517421907216,90.6643538752577,Bridge,,,,
78,88,,BOBARCHAR BRIDGE(L),,,32.121,,,,,,,,,,,,,,,,,,,,,,N1,A,23.5517421907216,90.6643538752577,Bridge,,,,
79,89,,BOBAIRCHAR BRIDGE(R),,,32.121,,,,,,,,,,,,,,,,,,,,,,N1,A,23.5517421907216,90.6643538752577,Bridge,,,,
80,90,,PURRANBUICHE BOX CULVERT,,,32.777,,,,,,,,,,,,,,,,,,,,,,N1,A,23.5477377446428,90.6690554098214,Bridge,,,,
81,91,,NOYAPARA,,,32.796,,,,,,,,,,,,,,,,,,,,,,N1,A,23.5476246437499,90.669192065625,Bridge,,,,
82,92,,Madhya Baushia Bridge(L),,,33.591,,,,,,,,,,,,,,,,,,,,,,N1,A,23.54268543125,90.6748292125,Bridge,,,,
83,93,,MADHAYA BAUSHIA BRIDGE(R),,,33.591,,,,,,,,,,,,,,,,,,,,,,N1,A,23.54268543125,90.6748292125,Bridge,,,,
84,94,,MADHAYA BAUSHIA(L),,,33.591,,,,,,,,,,,,,,,,,,,,,,N1,A,23.54268543125,90.6748292125,Bridge,,,,
85,95,,Madhya Baushia Bridge(R),,,33.591,,,,,,,,,,,,,,,,,,,,,,N1,A,23.54268543125,90.6748292125,Bridge,,,,
86,96,,BOCTAR KANDI BOX CULVERT,,,34.111,,,,,,,,,,,,,,,,,,,,,,N1,C,23.5393910168,90.6784577888,Bridge,,,,
87,97,,.,,,35.181,,,,,,,,,,,,,,,,,,,,,,N1,A,23.5327751898617,90.6858701078341,Bridge,,,,
88,98,,Baushia bazar Bridge( L ),,,35.408,,,,,,,,,,,,,,,,,,,,,,N1,A,23.5313996605222,90.68744892596,Bridge,,,,
89,99,,Baushia bazar Bridge ( R ),,,35.408,,,,,,,,,,,,,,,,,,,,,,N1,A,23.5313996605222,90.68744892596,Bridge,,,,
90,100,,BORAKANDI BRIDGE(L),,,35.408,,,,,,,,,,,,,,,,,,,,,,N1,B,23.5313996605222,90.68744892596,Bridge,,,,
91,101,,CHAR BOWSHIA BRIDGE(R),,,35.408,,,,,,,,,,,,,,,,,,,,,,N1,B,23.5313996605222,90.68744892596,Bridge,,,,
92,102,,CHAR BOUSHEA (2),,,35.707,,,,,,,,,,,,,,,,,,,,,,N1,A,23.5301519626506,90.6897951837349,Bridge,,,,
93,104,N1-11R,Daudkandi Bridge- Daudkandi Z1062 (Right),LRP033,3664.0,36.271,LRP033,5859.0,38.466,2.195,244.0,4999.0,1005.0,2019.0,684.0,1647.0,396.0,1961.0,1120.0,314.0,31.0,131.0,0.0,14389.0,162.0,14551.0,14551.0,N1,,23.529916,90.6952219,Road,Z1062,,,
94,105,,Daudkandi Bridge.,,,37.01,,,,,,,,,,,,,,,,,,,,,,N1,A,23.5303844733,90.7024402743,Bridge,,,,
95,106,,Daud Kandi Bridge,,,37.01,,,,,,,,,,,,,,,,,,,,,,N1,C,23.5303844733,90.7024402743,Bridge,,,,
96,108,N1-12R,Daudkandi Z1062 - Pennai Z1053 (Right),LRP033,5859.0,38.466,LRP043,3119.0,45.388,6.922,359.0,4772.0,851.0,1637.0,566.0,699.0,398.0,1126.0,786.0,198.0,44.0,147.0,0.0,11392.0,191.0,11583.0,11583.0,N1,,23.5314716,90.7172216,Road,Z1062,Z1053,,
97,109,,Baldhakhal Bridge,,,39.304,,,,,,,,,,,,,,,,,,,,,,N1,C,23.5324186,90.7242807234,Bridge,,,,
98,110,,BALDHA KHAL RCC GIDER BRIDGE,,,39.304,,,,,,,,,,,,,,,,,,,,,,N1,C,23.5324186,90.7242807234,Bridge,,,,
99,111,,MAIS PARA BOX CULVERT,,,39.86,,,,,,,,,,,,,,,,,,,,,,N1,B,23.5317587831999,90.7291780095,Bridge,,,,
100,112,,SHAHID NAGIR,,,42.936,,,,,,,,,,,,,,,,,,,,,,N1,C,23.5298050611,90.75825325,Bridge,,,,
101,113,,Shahid Nagor Bridge,,,42.936,,,,,,,,,,,,,,,,,,,,,,N1,C,23.5298050611,90.75825325,Bridge,,,,
102,114,,SARKAR BARI CULVERT,,,45.164,,,,,,,,,,,,,,,,,,,,,,N1,C,23.5307655282208,90.7800797251533,Bridge,,,,
103,116,N1-13R,Pennai Z1053- Gouripur (Int.with Z1044) (Right),LRP043,3119.0,45.388,LRP043,4955.0,47.224,1.836,359.0,4772.0,851.0,1637.0,566.0,699.0,398.0,1126.0,786.0,198.0,44.0,147.0,0.0,11392.0,191.0,11583.0,11583.0,N1,,23.530666,90.7821938,Road,Z1053,Z1044,,
104,117,,AMIRABATH SLAB CULVERT,,,46.871,,,,,,,,,,,,,,,,,,,,,,N1,C,23.5308683409424,90.7918075171727,Bridge,,,,
105,119,N1-14R,Gouripur (Int.with Z1044) - Eliotganj Z1042 (Right),LRP043,4955.0,47.224,LRP043,13208.0,55.477,8.253,348.0,4941.0,928.0,1627.0,632.0,695.0,397.0,1049.0,800.0,132.0,26.0,106.0,0.0,11549.0,132.0,11681.0,11681.0,N1,,23.5306938,90.7924441,Road,Z1044,Z1042,,
106,120,,Ginlatoly bridge,,,48.384,,,,,,,,,,,,,,,,,,,,,,N1,A,23.5318234765,90.8110155135,Bridge,,,,
107,121,,Ginlatoly,,,48.384,,,,,,,,,,,,,,,,,,,,,,N1,C,23.5318234765,90.8110155135,Bridge,,,,
108,122,,RAIPUR BOX CULVERT,,,50.558,,,,,,,,,,,,,,,,,,,,,,N1,A,23.5329743291,90.8309774761999,Bridge,,,,
109,123,,AITAL BANGA BOX CULVERT,,,52.313,,,,,,,,,,,,,,,,,,,,,,N1,C,23.5229166652,90.8442186132,Bridge,,,,
110,125,N1-15R,Eliotganj Z1042- Madhaya Z1017 (Right),LRP043,13208.0,55.477,LRP043,20009.0,62.278,6.801,359.0,4772.0,851.0,1637.0,566.0,699.0,398.0,1126.0,786.0,198.0,44.0,147.0,0.0,11392.0,191.0,11583.0,11583.0,N1,,23.5126667,90.871416,Road,Z1042,Z1017,,
111,126,,Illiot bazar Bridge,,,56.006,,,,,,,,,,,,,,,,,,,,,,N1,C,23.510087758207,90.8757204035353,Bridge,,,,
112,127,,ILLIOT BAZER,,,56.006,,,,,,,,,,,,,,,,,,,,,,N1,B,23.510087758207,90.8757204035353,Bridge,,,,
113,128,,KHAT GHOR BOX CULVERT,,,58.838,,,,,,,,,,,,,,,,,,,,,,N1,B,23.5060024341,90.9021745389,Bridge,,,,
114,129,,BAKRA BOX CULVERT,,,60.83,,,,,,,,,,,,,,,,,,,,,,N1,B,23.5056131416,90.9214660218,Bridge,,,,
115,131,N1-16R,Madhaya Z1017 - Chandina Z1022 (Right),LRP043,20009.0,62.278,LRP067,3912.0,69.638,7.36,359.0,4772.0,851.0,1637.0,566.0,699.0,398.0,1126.0,786.0,198.0,44.0,147.0,0.0,11392.0,191.0,11583.0,11583.0,N1,,23.5043333,90.9354719,Road,Z1017,Z1022,,
116,132,,MATIA BAZER,,,63.098,,,,,,,,,,,,,,,,,,,,,,N1,B,23.5024077848,90.9432418928,Bridge,,,,
117,133,,SONAPUR BOX CULVERT,,,63.538,,,,,,,,,,,,,,,,,,,,,,N1,A,23.5013551924,90.9473844088999,Bridge,,,,
118,134,,KARON KHAL SLAB CULVERT,,,66.178,,,,,,,,,,,,,,,,,,,,,,N1,B,23.495896314,90.9715772516,Bridge,,,,
119,135,,MILL GHAT BOX CULVERT,,,68.04,,,,,,,,,,,,,,,,,,,,,,N1,A,23.4932728146,90.9887200416,Bridge,,,,
120,137,N1-17R,Chandina Z1022 - Nimsar (Int.with Z1219 & Z1028) (Right),LRP067,3912.0,69.638,LRP076,1760.0,75.589,5.951,336.0,5605.0,763.0,1863.0,474.0,1037.0,415.0,1042.0,1906.0,492.0,96.0,184.0,0.0,13933.0,280.0,14213.0,14213.0,N1,,23.4893886,91.0034722,Road,Z1022,Z1219,Z1028,Z1022Z1219Z1028
121,138,,CHANDINA- SHAHA PARA RCC GIDER GRIDGE,,,71.156,,,,,,,,,,,,,,,,,,,,,,N1,C,23.4868805937254,91.017566692647,Bridge,,,,
122,139,,Chandinan-Shahapara Bridge.,,,71.156,,,,,,,,,,,,,,,,,,,,,,N1,C,23.4868805937254,91.017566692647,Bridge,,,,
123,140,,CORI PAI BOX CULVERT,,,74.279,,,,,,,,,,,,,,,,,,,,,,N1,B,23.4817873233065,91.0463348850746,Bridge,,,,
124,141,,COREPAI BOX CULVERT,,,75.312,,,,,,,,,,,,,,,,,,,,,,N1,B,23.4817498298684,91.0563549686842,Bridge,,,,
125,143,N1-18R,Nimsar (Int.with Z1219 & Z1028) - Mainamati N102 (Right),LRP076,1760.0,75.589,LRP076,8017.0,81.846,6.257,336.0,5605.0,763.0,1863.0,474.0,1037.0,415.0,1042.0,1906.0,492.0,96.0,184.0,0.0,13933.0,280.0,14213.0,14213.0,N1,,23.4815271,91.0590278,Road,Z1219,Z1028,N102,Z1219Z1028N102
126,144,,NIMSHAR SLAB CULVERT,,,76.481,,,,,,,,,,,,,,,,,,,,,,N1,A,23.480613086,91.0674097692,Bridge,,,,
127,145,,KABILA DUBARCHAR SLAB CULVERT,,,78.382,,,,,,,,,,,,,,,,,,,,,,N1,C,23.4776722851,91.0847406393,Bridge,,,,
128,146,,NAZIRA BOX CULVERT,,,80.949,,,,,,,,,,,,,,,,,,,,,,N1,B,23.4781159049382,91.1070332074074,Bridge,,,,
129,148,N1-19R,Mainamati N102- Int.with Z1029 (Right),LRP076,8017.0,81.846,LRP076,12068.0,85.897,4.051,336.0,5605.0,763.0,1863.0,474.0,1037.0,415.0,1042.0,1906.0,492.0,96.0,184.0,0.0,13933.0,280.0,14213.0,14213.0,N1,,23.4789716,91.118166,Road,N102,Z1029,,
130,149,,TIPRA BAZAR BOX CULVERT,,,82.437,,,,,,,,,,,,,,,,,,,,,,N1,A,23.4794083880733,91.1238920825688,Bridge,,,,
131,150,,AMTOLI SLAB CULVERT,,,82.989,,,,,,,,,,,,,,,,,,,,,,N1,A,23.479544924,91.129047144,Bridge,,,,
132,152,N1-20R,Int.with Z1029 - Int.with Z1052 (Right),LRP076,12068.0,85.897,LRP076,13537.0,87.366,1.469,336.0,5605.0,763.0,1863.0,474.0,1037.0,415.0,1042.0,1906.0,492.0,96.0,184.0,0.0,13933.0,280.0,14213.0,14213.0,N1,,23.459,91.142333,Road,Z1029,Z1052,,
133,154,N1-21R,Int.with Z1052 - Changani (Kotbari) (Right),LRP076,13537.0,87.366,LRP091,897.0,89.41,2.044,321.0,5542.0,848.0,1306.0,321.0,522.0,282.0,825.0,1412.0,370.0,64.0,143.0,0.0,11749.0,207.0,11956.0,11956.0,N1,,23.4469441,91.1481386,Road,Z1052,,,
134,155,,DHANPUR RCC GIDER BRIDGE,,,87.713,,,,,,,,,,,,,,,,,,,,,,N1,A,23.4436339598272,91.1493668151188,Bridge,,,,
135,156,,Dhanpur Bridge,,,87.713,,,,,,,,,,,,,,,,,,,,,,N1,C,23.4436339598272,91.1493668151188,Bridge,,,,
136,158,N1-22R,Changani (Kotbari) - Paduar Bazar Biswa Rd. R140 (Right),LRP091,897.0,89.41,LRP093,1090.0,91.583,2.173,321.0,5542.0,848.0,1306.0,321.0,522.0,282.0,825.0,1412.0,370.0,64.0,143.0,0.0,11749.0,207.0,11956.0,11956.0,N1,,23.4288882,91.1553889,Road,R140,,,
137,159,,Paduar Bazar Bridge,,,91.092,,,,,,,,,,,,,,,,,,,,,,N1,C,23.4212487704918,91.1678943372365,Bridge,,,,
138,160,,PADUAR BAZER RCCGIDER,,,91.092,,,,,,,,,,,,,,,,,,,,,,N1,B,23.4212487704918,91.1678943372365,Bridge,,,,
139,162,N1-23R,Paduar Bazar Biswa Rd. R140 - Miabazar Z1046 (Right),LRP093,1090.0,91.583,LRP105,3631.0,105.879,14.296,321.0,5542.0,848.0,1306.0,321.0,522.0,282.0,825.0,1412.0,370.0,64.0,143.0,0.0,11749.0,207.0,11956.0,11956.0,N1,,23.4191382,91.1721938,Road,R140,Z1046,,
140,163,,Mostapur Bridge,,,93.6,,,,,,,,,,,,,,,,,,,,,,N1,C,23.4119324230158,91.1939029849206,Bridge,,,,
141,164,,MOSTAPUR RCC GIDER BRIDGE,,,93.6,,,,,,,,,,,,,,,,,,,,,,N1,B,23.4119324230158,91.1939029849206,Bridge,,,,
142,165,,RAZAPARA RCC GIDER BRIDGE,,,97.257,,,,,,,,,,,,,,,,,,,,,,N1,A,23.3976518197887,91.2234221346859,Bridge,,,,
143,166,,Matigara Bridge,,,97.257,,,,,,,,,,,,,,,,,,,,,,N1,C,23.3976518197887,91.2234221346859,Bridge,,,,
144,167,,Suagazi Bridge.,,,100.938,,,,,,,,,,,,,,,,,,,,,,N1,A,23.3713647755,91.2450175414999,Bridge,,,,
145,168,,SUAGAZI RCC GIDER BRIDGE,,,100.938,,,,,,,,,,,,,,,,,,,,,,N1,A,23.3713647755,91.2450175414999,Bridge,,,,
146,169,,LAL BAG RCC GIDER BRIDGE,,,103.456,,,,,,,,,,,,,,,,,,,,,,N1,C,23.3521636774381,91.2572910746724,Bridge,,,,
147,170,,Lalbag Bridge.,,,103.456,,,,,,,,,,,,,,,,,,,,,,N1,C,23.3521636774381,91.2572910746724,Bridge,,,,
148,171,,CHANSIRI BOXCUIVERT,,,104.753,,,,,,,,,,,,,,,,,,,,,,N1,A,23.342671472,91.264485636,Bridge,,,,
149,173,N1-24R,Miabazar Z1046 - Chauddagram(Int.with Z1045) (Right),LRP105,3631.0,105.879,LRP105,17450.0,119.698,13.819,321.0,5542.0,848.0,1306.0,321.0,522.0,282.0,825.0,1412.0,370.0,64.0,143.0,0.0,11749.0,207.0,11956.0,11956.0,N1,,23.3347219,91.271166,Road,Z1046,Z1045,,
150,174,,MIABAZAR BOX CULVERT,,,106.519,,,,,,,,,,,,,,,,,,,,,,N1,A,23.3301462324,91.2748792824,Bridge,,,,
151,175,,NOYA BAZER BOX CULVERT,,,108.125,,,,,,,,,,,,,,,,,,,,,,N1,A,23.3180696869138,91.2830867321701,Bridge,,,,
152,176,,DOLL BARI CULVERT,,,109.289,,,,,,,,,,,,,,,,,,,,,,N1,B,23.3083612731261,91.2865787034735,Bridge,,,,
153,177,,DHARMA PUR SLAB CULVERT,,,109.897,,,,,,,,,,,,,,,,,,,,,,N1,B,23.3034306450331,91.2889770397351,Bridge,,,,
154,178,,LALGORE BEZER CULVERT,,,110.551,,,,,,,,,,,,,,,,,,,,,,N1,A,23.2979675271676,91.2910141369942,Bridge,,,,
155,179,,SUPUYA BOX CULVERT,,,111.509,,,,,,,,,,,,,,,,,,,,,,N1,A,23.2897066386454,91.2929584711155,Bridge,,,,
156,180,,BOWCHI BAZAR CULVERT,,,112.469,,,,,,,,,,,,,,,,,,,,,,N1,B,23.2821949258397,91.2966655096899,Bridge,,,,
157,181,,AMAN GONG SLAB CULVERT,,,113.717,,,,,,,,,,,,,,,,,,,,,,N1,B,23.27301895,91.3029661882,Bridge,,,,
158,182,,RANGAMATIA (1) BOX CULVERT,,,115.052,,,,,,,,,,,,,,,,,,,,,,N1,B,23.2618360940594,91.3070217386138,Bridge,,,,
159,183,,RANGOWATIA 2 CULVERT,,,115.326,,,,,,,,,,,,,,,,,,,,,,N1,B,23.25941665,91.3073611,Bridge,,,,
160,184,,NOWA PARA BOX CULVERT,,,115.525,,,,,,,,,,,,,,,,,,,,,,N1,B,23.2576429774881,91.3076156494075,Bridge,,,,
161,185,,HARISHARDE CULVERT,,,116.074,,,,,,,,,,,,,,,,,,,,,,N1,B,23.2527463398104,91.3083926405213,Bridge,,,,
162,186,,SONAGATI BOX CULVERT,,,117.087,,,,,,,,,,,,,,,,,,,,,,N1,B,23.2443915125925,91.3114032292592,Bridge,,,,
163,187,,BALUJURI BOX CULVERT,,,117.269,,,,,,,,,,,,,,,,,,,,,,N1,B,23.2429040619631,91.3119739539877,Bridge,,,,
164,188,,BALUZURI 2 CULVERT,,,117.627,,,,,,,,,,,,,,,,,,,,,,N1,A,23.2397920309669,91.3125740860465,Bridge,,,,
165,189,,KALIR BAZAR BOX CULVERT,,,118.049,,,,,,,,,,,,,,,,,,,,,,N1,A,23.2360759516523,91.3129901976744,Bridge,,,,
166,190,,KALIA BAZER BOC CULVERT,,,118.856,,,,,,,,,,,,,,,,,,,,,,N1,B,23.2289195919642,91.3134220678571,Bridge,,,,
167,191,,CHAUDDAGARAM BOX CULVERT,,,119.19,,,,,,,,,,,,,,,,,,,,,,N1,B,23.2259184472573,91.3135697177215,Bridge,,,,
168,192,,CHADDAGRAM BAZAR BOX CULVERT,,,119.628,,,,,,,,,,,,,,,,,,,,,,N1,A,23.2220338977777,91.3137005933333,Bridge,,,,
169,194,N1-25R,Chauddagram(Int.with Z1045)-Md. Ali bazar (Int.with Z1031) (Right),LRP105,17450.0,119.698,LRP142,230.0,138.869,19.171,398.0,3838.0,863.0,780.0,314.0,674.0,306.0,589.0,760.0,353.0,36.0,115.0,0.0,8875.0,151.0,9026.0,9026.0,N1,,23.221416,91.3137222,Road,Z1045,Z1031,,
170,195,,HAYDAR POLE BOX CULVERT,,,120.634,,,,,,,,,,,,,,,,,,,,,,N1,B,23.2131955721448,91.3153497403899,Bridge,,,,
171,196,,FALGUNCORA CULVERT,,,121.567,,,,,,,,,,,,,,,,,,,,,,N1,A,23.2050386287937,91.3163167282749,Bridge,,,,
172,197,,ATTOCK GRAM BOX CULVERT,,,122.603,,,,,,,,,,,,,,,,,,,,,,N1,A,23.1961887953757,91.3176705069364,Bridge,,,,
173,198,,BOSONTA PUR BOX CULVERT,,,123.681,,,,,,,,,,,,,,,,,,,,,,N1,C,23.1874350254302,91.3209051317399,Bridge,,,,
174,199,,BASHONTA PUR (2),,,124.346,,,,,,,,,,,,,,,,,,,,,,N1,B,23.1817958149837,91.3208787514658,Bridge,,,,
175,200,,NANKORA BOX CULVERT,,,125.41,,,,,,,,,,,,,,,,,,,,,,N1,B,23.1726272318681,91.3205774642857,Bridge,,,,
176,201,,ANDAJER BAZER BOX CULVERT,,,126.448,,,,,,,,,,,,,,,,,,,,,,N1,A,23.1635138669191,91.3215889464646,Bridge,,,,
177,202,,DIMATOLI (1) BOX CULVERT,,,127.673,,,,,,,,,,,,,,,,,,,,,,N1,B,23.1527364949367,91.3243178772152,Bridge,,,,
178,203,,DIMATOLY (2) BOX CULVERT,,,128.767,,,,,,,,,,,,,,,,,,,,,,N1,B,23.1436667679334,91.3266680470308,Bridge,,,,
179,204,,JAGARNATHPUR BOX CULVERT,,,129.291,,,,,,,,,,,,,,,,,,,,,,N1,B,23.1389893200345,91.3263585348877,Bridge,,,,
180,205,,JAGOT PUR BOX CULVERT,,,129.955,,,,,,,,,,,,,,,,,,,,,,N1,B,23.1332639685968,91.327546416481,Bridge,,,,
181,206,,HASO BOTHACH BOX CULVERT,,,130.912,,,,,,,,,,,,,,,,,,,,,,N1,A,23.1252363577777,91.3303863688888,Bridge,,,,
182,207,,FOKIR BAZAR SLAB CULVERT,,,131.577,,,,,,,,,,,,,,,,,,,,,,N1,B,23.1196973774193,91.3328165129032,Bridge,,,,
183,208,,KAKKARA CULVERT,,,132.079,,,,,,,,,,,,,,,,,,,,,,N1,B,23.1158251554,91.335094485,Bridge,,,,
184,209,,Chanara Box Culvert,,,133.155,,,,,,,,,,,,,,,,,,,,,,N1,A,23.1074284451388,91.3400495436111,Bridge,,,,
185,210,,CHANGARPULL(II) BOX CULVERT,,,133.873,,,,,,,,,,,,,,,,,,,,,,N1,B,23.1017563206521,91.343162998913,Bridge,,,,
186,211,,ADONCORA,,,134.426,,,,,,,,,,,,,,,,,,,,,,N1,B,23.0973512527272,91.3454956309091,Bridge,,,,
187,212,,PODOYA BOX CULVERT,,,134.974,,,,,,,,,,,,,,,,,,,,,,N1,A,23.0930298369186,91.3478308386627,Bridge,,,,
188,213,,FOEALTPARA BOX CULVERT,,,135.723,,,,,,,,,,,,,,,,,,,,,,N1,B,23.0870753710144,91.3512101492753,Bridge,,,,
189,214,,UTTOR KAIEATI CULVERT,,,136.375,,,,,,,,,,,,,,,,,,,,,,N1,A,23.0819909531309,91.3541811474383,Bridge,,,,
190,215,,KOKALI BOX CULVERT,,,136.899,,,,,,,,,,,,,,,,,,,,,,N1,B,23.0779647046997,91.3566005031331,Bridge,,,,
191,216,,DUTHOSHA BOX CULVERT,,,137.856,,,,,,,,,,,,,,,,,,,,,,N1,B,23.070198184,91.3603022,Bridge,,,,
192,218,N1-26R,Md. Ali bazar (Int.with Z1031)-Int.with Z1031 (Right),LRP142,230.0,138.869,LRP143,500.0,140.251,1.382,398.0,3838.0,863.0,780.0,314.0,674.0,306.0,589.0,760.0,353.0,36.0,115.0,0.0,8875.0,151.0,9026.0,9026.0,N1,,23.0614722,91.3616667,Road,Z1031,Z1031,,
193,219,,MOHAMMAD ALI MAZAR,,,138.953,,,,,,,,,,,,,,,,,,,,,,N1,B,23.0607473333333,91.3618624619047,Bridge,,,,
194,221,N1-27R,Int.with Z1031 - Elahiganj (Feni) Z1030 (Right),LRP143,500.0,140.251,LRP146,240.0,143.034,2.783,728.0,4991.0,1253.0,2234.0,667.0,1164.0,249.0,813.0,1676.0,426.0,148.0,235.0,0.0,14201.0,383.0,14584.0,14584.0,N1,,23.0479441,91.3651389,Road,Z1031,Z1030,,
195,222,,FATAPUR BOX CULVERT,,,141.531,,,,,,,,,,,,,,,,,,,,,,N1,A,23.0379728055555,91.3656784724359,Bridge,,,,
196,223,,DEBIPUR SLAB CULVERT,,,142.793,,,,,,,,,,,,,,,,,,,,,,N1,A,23.0269801170731,91.3655004839721,Bridge,,,,
197,225,N1-28R,Elahiganj (Feni) Z1030- Feni (Int.with N104) (Right),LRP146,240.0,143.034,LRP147,1614.0,145.409,2.375,626.0,4617.0,1156.0,1923.0,588.0,791.0,216.0,716.0,1212.0,331.0,92.0,228.0,0.0,12176.0,320.0,12496.0,12496.0,N1,,23.0248327,91.3655278,Road,Z1030,N104,,
198,226,,CHARIPUR CULVERT.,,,144.939,,,,,,,,,,,,,,,,,,,,,,N1,A,23.0124048410423,91.3779796149837,Bridge,,,,
199,228,N1-29R,Feni (Int.with N104) - Feni Shahid Minar (Int.with Z1034) (Right),LRP147,1614.0,145.409,LRP152,448.0,149.289,3.88,350.0,5976.0,1656.0,1618.0,669.0,1185.0,355.0,1071.0,1266.0,409.0,96.0,196.0,0.0,14555.0,292.0,14847.0,14847.0,N1,,23.0095556,91.3813604,Road,N104,Z1034,,
200,229,,RAMPUR BOX CULVERT,,,147.296,,,,,,,,,,,,,,,,,,,,,,N1,A,22.999248756,91.3957752,Bridge,,,,
201,230,,RAMPUR BRIDGE,,,148.151,,,,,,,,,,,,,,,,,,,,,,N1,A,22.9947280792802,91.4022894900763,Bridge,,,,
202,231,,Rampur Bridge(L),,,148.151,,,,,,,,,,,,,,,,,,,,,,N1,B,22.9947280792802,91.4022894900763,Bridge,,,,
203,232,,Rampur Bridge(R),,,148.174,,,,,,,,,,,,,,,,,,,,,,N1,A,22.9945936133042,91.4024539137404,Bridge,,,,
204,233,,.,,,148.495,,,,,,,,,,,,,,,,,,,,,,N1,A,22.9927169359869,91.4047486961832,Bridge,,,,
205,235,N1-30R,Feni Shahid Minar( Int.with Z1034)-Fazilpur (Z1081) (Right),LRP152,448.0,149.289,LRP160,738.0,157.685,8.396,437.0,5132.0,981.0,1477.0,239.0,613.0,235.0,833.0,847.0,187.0,200.0,141.0,0.0,10981.0,341.0,11322.0,11322.0,N1,,22.9877774,91.41,Road,Z1034,Z1081,,
206,236,,Lemua Bridge(L),,,153.843,,,,,,,,,,,,,,,,,,,,,,N1,C,22.9614487369369,91.4429962027027,Bridge,,,,
207,237,,LAMUA BRIDGE,,,153.843,,,,,,,,,,,,,,,,,,,,,,N1,B,22.9614487369369,91.4429962027027,Bridge,,,,
208,239,N1-31R,Fazilpur Z1081 - Muhuriganj Z1032 (Right),LRP160,738.0,157.685,LRP164,619.0,161.582,3.897,350.0,5976.0,1656.0,1618.0,669.0,1185.0,355.0,1071.0,1266.0,409.0,96.0,196.0,0.0,14555.0,292.0,14847.0,14847.0,N1,,22.9483608,91.4761382,Road,Z1081,Z1032,,
209,240,,FAZAILPUR BOXCULVERT,,,158.031,,,,,,,,,,,,,,,,,,,,,,N1,A,22.9486038666666,91.4794993833333,Bridge,,,,
210,241,,MUHURI BRIDGE,,,160.379,,,,,,,,,,,,,,,,,,,,,,N1,B,22.9496126090047,91.502066899526,Bridge,,,,
211,242,,Muhuri Bridge(L),,,160.379,,,,,,,,,,,,,,,,,,,,,,N1,B,22.9496126090047,91.502066899526,Bridge,,,,
212,244,N1-32R,Muhuriganj Z1032-Baraiyerhat R151 (Right),LRP164,619.0,161.582,LRP164,6720.0,167.683,6.101,376.0,4095.0,978.0,1358.0,526.0,765.0,277.0,770.0,2304.0,292.0,75.0,282.0,0.0,11741.0,357.0,12098.0,12098.0,N1,,22.9439441,91.5108611,Road,Z1032,R151,,
213,245,,DumGhat Bridge(L),,,165.183,,,,,,,,,,,,,,,,,,,,,,N1,A,22.9149647061403,91.5262895350877,Bridge,,,,
214,246,,DHOOM GHAT PC GIRDER,,,165.183,,,,,,,,,,,,,,,,,,,,,,N1,B,22.9149647061403,91.5262895350877,Bridge,,,,
215,247,,BUMGAT BOXCULVERT,,,165.825,,,,,,,,,,,,,,,,,,,,,,N1,A,22.9097128884012,91.5289285034482,Bridge,,,,
216,248,,BOROYAR PARA SLUB CULVERT,,,166.479,,,,,,,,,,,,,,,,,,,,,,N1,A,22.9042462955223,91.5316297776119,Bridge,,,,
217,250,N1-33R,Baraiyerhat R151- Mirersarai Z1021 (Right),LRP164,6720.0,167.683,LRP164,20501.0,181.464,13.781,376.0,4095.0,978.0,1358.0,526.0,765.0,277.0,770.0,2304.0,292.0,75.0,282.0,0.0,11741.0,357.0,12098.0,12098.0,N1,,22.8939997,91.5346941,Road,R151,Z1021,,
218,251,,BAROYARHAT BOX CULVERT,,,167.963,,,,,,,,,,,,,,,,,,,,,,N1,A,22.8916386,91.5354719,Bridge,,,,
219,252,,UTTOR SONAPAR BOX CULVERT,,,169.933,,,,,,,,,,,,,,,,,,,,,,N1,A,22.8746986941176,91.5408836647058,Bridge,,,,
220,253,,CHAIRMEN BARI BOX CULVERT,,,170.174,,,,,,,,,,,,,,,,,,,,,,N1,A,22.872722034892,91.5415958766187,Bridge,,,,
221,254,,MADDAM SONAPAR(1) BOX CULVERT,,,170.725,,,,,,,,,,,,,,,,,,,,,,N1,A,22.8680563702127,91.5432963340425,Bridge,,,,
222,255,,DHARBAR TILA CULVERT,,,171.554,,,,,,,,,,,,,,,,,,,,,,N1,A,22.8609876872509,91.5451551717131,Bridge,,,,
223,256,,MADDUM SONAPHAR-3,,,171.728,,,,,,,,,,,,,,,,,,,,,,N1,A,22.8594847882591,91.5454799987854,Bridge,,,,
224,257,,MAMAFOUN ASTANA CULVERT,,,172.122,,,,,,,,,,,,,,,,,,,,,,N1,A,22.8560565672727,91.5457188709091,Bridge,,,,
225,258,,MAMAFAKIR ASTANA SLAB CULVERT,,,172.23,,,,,,,,,,,,,,,,,,,,,,N1,A,22.8551475327433,91.5458221849557,Bridge,,,,
226,259,,MASTANNAGOR BONCUL(1),,,172.969,,,,,,,,,,,,,,,,,,,,,,N1,A,22.8486172764705,91.5463706117647,Bridge,,,,
227,260,,MUSTAU NOGAR(2),,,173.35,,,,,,,,,,,,,,,,,,,,,,N1,A,22.8453914894736,91.5474689210526,Bridge,,,,
228,261,,MASTARI HAGOR 3 CULVERT,,,173.585,,,,,,,,,,,,,,,,,,,,,,N1,A,22.8434551375,91.54814955625,Bridge,R 3,,,
229,262,,MUSTAN NAGAR -4,,,173.859,,,,,,,,,,,,,,,,,,,,,,N1,A,22.8410943334277,91.5488096951841,Bridge,,,,
230,263,,RAIPUR BOX CUL-1,,,174.804,,,,,,,,,,,,,,,,,,,,,,N1,A,22.8327467692419,91.5501035014577,Bridge,,,,
231,264,,RAIPUR (2) BOX CULVERT,,,175.013,,,,,,,,,,,,,,,,,,,,,,N1,A,22.8309613422018,91.5505028545871,Bridge,,,,
232,265,,PURPU DURGAPURE BOX CUL,,,175.785,,,,,,,,,,,,,,,,,,,,,,N1,C,22.8243706577981,91.5526915454128,Bridge,,,,
233,266,,MUCHIPOOL CULVERT,,,177.247,,,,,,,,,,,,,,,,,,,,,,N1,B,22.811563437647,91.5562562129411,Bridge,,,,
234,267,,MIRSARAI BOX CUL,,,179.363,,,,,,,,,,,,,,,,,,,,,,N1,A,22.7941813523326,91.5629612622718,Bridge,,,,
235,268,,MIRAISORI BRIDGE,,,180.85,,,,,,,,,,,,,,,,,,,,,,N1,B,22.7821968918511,91.5691025661971,Bridge,,,,
236,270,N1-34R,Mirersarai Z1021 - Baroirdala Z1086 (Right),LRP164,20501.0,181.464,LRP197,1120.0,194.603,13.139,376.0,4095.0,978.0,1358.0,526.0,765.0,277.0,770.0,2304.0,292.0,75.0,282.0,0.0,11741.0,357.0,12098.0,12098.0,N1,,22.7771104,91.5713327,Road,Z1021,Z1086,,
237,271,,Mirsorai(2) box culvert,,,181.825,,,,,,,,,,,,,,,,,,,,,,N1,A,22.774197092,91.5728737519999,Bridge,,,,
238,272,,IANAINIPOL BOX CULVERT.,,,182.318,,,,,,,,,,,,,,,,,,,,,,N1,A,22.770251666098,91.5750905211087,Bridge,,,,
239,273,,BOKIMTOLA BOX CULVERT,,,183.296,,,,,,,,,,,,,,,,,,,,,,N1,A,22.7630626913907,91.5804538821192,Bridge,,,,
240,274,,VARTAKA BOX CULVERT,,,184.654,,,,,,,,,,,,,,,,,,,,,,N1,A,22.7535653245121,91.5886004236585,Bridge,,,,
241,275,,VARTAGIA BOX CULVERT,,,185.058,,,,,,,,,,,,,,,,,,,,,,N1,A,22.7506393495689,91.5908840370689,Bridge,,,,
242,276,,BOTHAGIA (-3) BOX CULVERT,,,185.842,,,,,,,,,,,,,,,,,,,,,,N1,B,22.7445136523437,91.5943998915364,Bridge,,,,
243,277,,NIAZAMPUR BOX CULVERT,,,188.35,,,,,,,,,,,,,,,,,,,,,,N1,A,22.723316755473,91.6024331404452,Bridge,,,,
244,278,,MIRJAPUR BOX CULVERT,,,189.058,,,,,,,,,,,,,,,,,,,,,,N1,A,22.7178243865384,91.6057623307692,Bridge,,,,
245,279,,MIRZAPUR (2) BOX CULVERT,,,189.13,,,,,,,,,,,,,,,,,,,,,,N1,A,22.7172707342307,91.6061084846153,Bridge,,,,
246,280,,ISAMATI BOX CULVERT,,,189.58,,,,,,,,,,,,,,,,,,,,,,N1,C,22.7138727382812,91.6082352218749,Bridge,,,,
247,281,,DUKHIN UTHPAR BOX CULVERT,,,191.107,,,,,,,,,,,,,,,,,,,,,,N1,A,22.701816503937,91.6149734608923,Bridge,,,,
248,282,,VANGGARPOL BOX CULVERT,,,192.408,,,,,,,,,,,,,,,,,,,,,,N1,A,22.6912517148148,91.6201690574074,Bridge,,,,
249,283,,BORO KAMALDA BOX CULVERT,,,192.95,,,,,,,,,,,,,,,,,,,,,,N1,A,22.6868697647058,91.6220385823529,Bridge,,,,
250,284,,TARAT BOX CULVERT,,,194.149,,,,,,,,,,,,,,,,,,,,,,N1,A,22.6769772991044,91.6268169453731,Bridge,,,,
251,286,N1-35R,Baroirdala Z1086- Barabkunda Z1087 (Right),LRP197,1120.0,194.603,LRP209,486.0,206.402,11.799,1217.0,5230.0,1456.0,1648.0,654.0,843.0,247.0,775.0,2735.0,415.0,109.0,350.0,0.0,15220.0,459.0,15679.0,15679.0,N1,,22.6733049,91.6280827,Road,Z1086,Z1087,,
252,287,,Tarial Bazar Culvert,,,194.998,,,,,,,,,,,,,,,,,,,,,,N1,A,22.6699594391304,91.6293531695652,Bridge,,,,
253,288,,MIRJA PUR (3) BOX CULVERT,,,195.501,,,,,,,,,,,,,,,,,,,,,,N1,A,22.6657838981081,91.6311293581081,Bridge,,,,
254,289,,SATU DURUAR HAT BOX CULVERT,,,196.038,,,,,,,,,,,,,,,,,,,,,,N1,A,22.6615956814814,91.6335257425926,Bridge,,,,
255,290,,RONA SORA CULVERT,,,196.925,,,,,,,,,,,,,,,,,,,,,,N1,A,22.6547124294117,91.6379261764705,Bridge,,,,
256,291,,NUNA CHARA BOX CULVERT,,,197.39,,,,,,,,,,,,,,,,,,,,,,N1,A,22.6510709547445,91.6400341194647,Bridge,,,,
257,292,,BOTTOL BOX CULVERT,,,197.846,,,,,,,,,,,,,,,,,,,,,,N1,A,22.6474561112311,91.6419171170626,Bridge,,,,
258,293,,KACHAI PATH BOX CULVERT,,,199.279,,,,,,,,,,,,,,,,,,,,,,N1,A,22.636096590965,91.648209240657,Bridge,,,,
259,294,,KACHAI POTTI BOX CULVERT,,,199.502,,,,,,,,,,,,,,,,,,,,,,N1,A,22.6343285718685,91.6492077265913,Bridge,,,,
260,295,,EGOL PUR BOX CULVERT,,,200.277,,,,,,,,,,,,,,,,,,,,,,N1,A,22.6281666352941,91.6527578258312,Bridge,,,,
261,296,,UTTOR SITAKONDO BAZAR BOX CULVERT,,,200.575,,,,,,,,,,,,,,,,,,,,,,N1,B,22.6258323373493,91.6541857554217,Bridge,,,,
262,297,,SITAKUNDA SLAB,,,200.918,,,,,,,,,,,,,,,,,,,,,,N1,A,22.6230461711711,91.6554672531531,Bridge,,,,
263,298,,MOHADAB PUR BOX CULVERT,,,201.52,,,,,,,,,,,,,,,,,,,,,,N1,A,22.6177563490118,91.6580589438735,Bridge,,,,
264,299,,PURBOMOHADAB PUR SLAB CULVERT(L),,,201.999,,,,,,,,,,,,,,,,,,,,,,N1,A,22.6149899686274,91.6602670503268,Bridge,,,,
265,300,,DULAHAJRA(R),,,201.999,,,,,,,,,,,,,,,,,,,,,,N1,A,22.6149899686274,91.6602670503268,Bridge,,,,
266,301,,MADICAL MORE CULVERT,,,202.435,,,,,,,,,,,,,,,,,,,,,,N1,A,22.6117556741935,91.6625686731182,Bridge,,,,
267,302,,DOKHIN MOHADEB PUR BOX CULVERT,,,203.457,,,,,,,,,,,,,,,,,,,,,,N1,A,22.6038394411764,91.6673745588235,Bridge,,,,
268,303,,KALIAVA BOX CULVERT,,,203.651,,,,,,,,,,,,,,,,,,,,,,N1,B,22.6023506949579,91.6683367336134,Bridge,,,,
269,304,,SKM BOX CULVERT(1),,,204.342,,,,,,,,,,,,,,,,,,,,,,N1,B,22.5971665766519,91.671819207489,Bridge,,,,
270,305,,HATILOTA BOX CULVERT,,,204.765,,,,,,,,,,,,,,,,,,,,,,N1,A,22.5938881803921,91.6738889367647,Bridge,,,,
271,306,,BAROCONDO BRIDGE,,,205.615,,,,,,,,,,,,,,,,,,,,,,N1,C,22.5870350167767,91.6770444686922,Bridge,,,,
272,307,,BAROGINDO CULVERT,,,206.3,,,,,,,,,,,,,,,,,,,,,,N1,A,22.5815086746355,91.6795390413994,Bridge,,,,
273,309,N1-36R,Barabkunda Z1087-Fouzderhat Z1016 (Right),LRP209,486.0,206.402,LRP225,6400.0,228.406,22.004,1217.0,5230.0,1456.0,1648.0,654.0,843.0,247.0,775.0,2735.0,415.0,109.0,350.0,0.0,15220.0,459.0,15679.0,15679.0,N1,,22.580666,91.6799438,Road,Z1087,Z1016,,
274,310,,BARO-CUNDHOW BOX CULVERT,,,206.866,,,,,,,,,,,,,,,,,,,,,,N1,A,22.5767930229508,91.68162274153,Bridge,,,,
275,311,,PHPMORE BON CULVERT,,,207.64,,,,,,,,,,,,,,,,,,,,,,N1,A,22.5702905930578,91.6840096656198,Bridge,,,,
276,312,,CHARA KANDI BOX CULVERT,,,207.913,,,,,,,,,,,,,,,,,,,,,,N1,A,22.5679968064462,91.6846866604958,Bridge,,,,
277,313,,R. R TEXTAIL BOX CULVERT,,,208.1,,,,,,,,,,,,,,,,,,,,,,N1,A,22.5664212916363,91.6851826636363,Bridge,,,,
278,314,,OHIDPUR BOX CULVERT,,,209.024,,,,,,,,,,,,,,,,,,,,,,N1,A,22.5585210862619,91.687506242492,Bridge,,,,
279,315,,BARSH BARIA BRIDGE,,,209.514,,,,,,,,,,,,,,,,,,,,,,N1,B,22.5543319776357,91.6887963149094,Bridge,,,,
280,316,,SOUTH BALSH KHALI BOX CULVERT,,,210.476,,,,,,,,,,,,,,,,,,,,,,N1,A,22.5467727210909,91.6926260603636,Bridge,,,,
281,317,,DOKHIN BASH-KHALI BOX CULVERT,,,210.776,,,,,,,,,,,,,,,,,,,,,,N1,A,22.5444897756363,91.6941310785454,Bridge,,,,
282,318,,SOTTANA MONDIR CULVERT,,,211.433,,,,,,,,,,,,,,,,,,,,,,N1,A,22.5390300234693,91.6965452744898,Bridge,,,,
283,319,,GULAM JUTE MILE BOX CULVERT,,,212.483,,,,,,,,,,,,,,,,,,,,,,N1,A,22.5303678038461,91.7004641228571,Bridge,,,,
284,320,,KYSTELGATE ARCH,,,213.386,,,,,,,,,,,,,,,,,,,,,,N1,B,22.5229359167189,91.7038366163009,Bridge,,,,
285,321,,Chotokumir Bridge,,,214.807,,,,,,,,,,,,,,,,,,,,,,N1,A,22.5113471164122,91.7087907889313,Bridge,,,,
286,322,,BORO KUMIRA BRIDGE,,,214.807,,,,,,,,,,,,,,,,,,,,,,N1,C,22.5113471164122,91.7087907889313,Bridge,,,,
287,323,,ROYL CIMINT GATE CULVETRT,,,215.467,,,,,,,,,,,,,,,,,,,,,,N1,A,22.5060220437735,91.7112848218867,Bridge,,,,
288,324,,GORA MARA RCC GIRDER BRIDGE,,,216.196,,,,,,,,,,,,,,,,,,,,,,N1,A,22.5000858335766,91.7141504905109,Bridge,,,,
289,325,,GORA MARI BOX CULVERT,,,217.377,,,,,,,,,,,,,,,,,,,,,,N1,B,22.4904405976324,91.7182726733934,Bridge,,,,
290,326,,BARAOWLLA BOX CULVERT,,,217.942,,,,,,,,,,,,,,,,,,,,,,N1,A,22.4855480068965,91.7195309517241,Bridge,,,,
291,327,,MUDDO SONAISORI BRIDGE,,,218.441,,,,,,,,,,,,,,,,,,,,,,N1,B,22.4811642144766,91.7203633632516,Bridge,,,,
292,328,,Baro Aulia,,,218.441,,,,,,,,,,,,,,,,,,,,,,N1,D,22.4811642144766,91.7203633632516,Bridge,,,,
293,329,,HATIBORI BOX CULVERT,,,219.427,,,,,,,,,,,,,,,,,,,,,,N1,A,22.4728530893544,91.7232633541336,Bridge,,,,
294,330,,SHLAKHAR PAD BRIDGE,,,220.725,,,,,,,,,,,,,,,,,,,,,,N1,B,22.4624386352,91.7285307,Bridge,,,,
295,331,,Modonhat Bridge,,,220.725,,,,,,,,,,,,,,,,,,,,,,N1,D,22.4624386352,91.7285307,Bridge,,,,
296,332,,KODOM RASUL BOX CULVERT,,,222.357,,,,,,,,,,,,,,,,,,,,,,N1,A,22.4488628503871,91.7342823894358,Bridge,,,,
297,333,,SALAKHARPAD BRIDGE,,,222.687,,,,,,,,,,,,,,,,,,,,,,N1,C,22.4460793332411,91.7353674287057,Bridge,,,,
298,334,,HASNA BAD BOX CULVERT,,,223.743,,,,,,,,,,,,,,,,,,,,,,N1,A,22.4375035216216,91.7386659473513,Bridge,,,,
299,335,,VATERIE BRIDGE,,,224.053,,,,,,,,,,,,,,,,,,,,,,N1,A,22.4350737918918,91.7396527192432,Bridge,,,,
300,336,,DHAMAKHALI BRIDGE,,,225.702,,,,,,,,,,,,,,,,,,,,,,N1,B,22.4220415536,91.7480209792,Bridge,,,,
301,337,,VATIARI CULVERT,,,228.029,,,,,,,,,,,,,,,,,,,,,,N1,A,22.4030145445,91.75657411625,Bridge,,,,
302,338,N1-37,Fouzderhat Z1016 - Alonker Cinema Hall (Chittagong),LRP225,6400.0,228.406,LRP225,10748.0,232.754,4.348,21.0,1105.0,808.0,898.0,621.0,987.0,194.0,694.0,2994.0,581.0,221.0,426.0,0.0,8903.0,647.0,9550.0,9550.0,N1,,22.3996108,91.7573333,Road,Z1016,,,
303,339,,T. B HOSPITAL GATE BOX CULVERT,,,228.797,,,,,,,,,,,,,,,,,,,,,,N1,A,22.3963398830265,91.7582551580777,Bridge,,,,
304,340,,GAMMON BRIDGE,,,229.203,,,,,,,,,,,,,,,,,,,,,,N1,A,22.3927175345622,91.7590882138248,Bridge,,,,
305,341,,PAKKA MATA BOX CULVERT,,,230.13,,,,,,,,,,,,,,,,,,,,,,N1,A,22.38524588272,91.76250565776,Bridge,,,,
306,342,,GLAXO BOX CULVERT,,,230.921,,,,,,,,,,,,,,,,,,,,,,N1,A,22.3797011826666,91.7670476533333,Bridge,,,,
307,343,,CORNAIL HAT BOX CULVERT,,,231.966,,,,,,,,,,,,,,,,,,,,,,N1,A,22.3696841276595,91.7739258709219,Bridge,,,,
308,344,N1-38,Chittagong (Badderhat)-Maizzertek int with Z1804,LRP225,10748.0,232.754,LRP251,496.0,247.893,15.139,21.0,1105.0,808.0,898.0,621.0,987.0,194.0,694.0,2994.0,581.0,221.0,426.0,0.0,8903.0,647.0,9550.0,9550.0,N1,,22.3586667,91.7822771,Road,Z1804,,,
309,345,,BOALIA BOX CULVERT,,,242.016,,,,,,,,,,,,,,,,,,,,,,N1,C,22.3599057425992,91.8522694918171,Bridge,,,,
310,346,,Bakulia Bridge,,,242.898,,,,,,,,,,,,,,,,,,,,,,N1,A,22.3522674714754,91.852622049836,Bridge,,,,
311,347,,BAKULIA BRIDGE,,,242.898,,,,,,,,,,,,,,,,,,,,,,N1,B,22.3522674714754,91.852622049836,Bridge,,,,
312,348,,HAFAS BAGAR BRIDGE,,,244.367,,,,,,,,,,,,,,,,,,,,,,N1,B,22.3395393508599,91.8533871579852,Bridge,,,,
313,349,,5 No hafez bazar Bridge,,,244.367,,,,,,,,,,,,,,,,,,,,,,N1,C,22.3395393508599,91.8533871579852,Bridge,,,,
314,350,,RAZAKATI BRIDGE,,,244.856,,,,,,,,,,,,,,,,,,,,,,N1,B,22.3357673216494,91.8538536927835,Bridge,,,,
315,351,,Tulatuli Bridge,,,244.856,,,,,,,,,,,,,,,,,,,,,,N1,C,22.3357673216494,91.8538536927835,Bridge,,,,
316,352,,RAJAKHALI RCC GIDER BRIDGE,,,244.975,,,,,,,,,,,,,,,,,,,,,,N1,A,22.3349153368556,91.8533979043814,Bridge,,,,
317,353,,Rajakhali Bridge,,,244.975,,,,,,,,,,,,,,,,,,,,,,N1,C,22.3349153368556,91.8533979043814,Bridge,,,,
318,354,,Sha Amanot Bridge,,,246.02,,,,,,,,,,,,,,,,,,,,,,N1,A,22.3266451369152,91.852759390139,Bridge,,,,
319,355,,Hajrath Sha Amanath Satu,,,246.02,,,,,,,,,,,,,,,,,,,,,,N1,C,22.3266451369152,91.852759390139,Bridge,,,,
320,356,,Shikalbaha Bridge,,,247.637,,,,,,,,,,,,,,,,,,,,,,N1,A,22.3129265129032,91.856181916129,Bridge,,,,
321,357,,SHIKALBAHA BRIDGE,,,247.637,,,,,,,,,,,,,,,,,,,,,,N1,C,22.3129265129032,91.856181916129,Bridge,,,,
322,358,N1-39,Maizzertek Int with Z1804-Sikolbaha Int with Z1018,LRP251,496.0,247.893,LRP251,3048.0,250.445,2.552,21.0,1105.0,808.0,898.0,621.0,987.0,194.0,694.0,2994.0,581.0,221.0,426.0,0.0,8903.0,647.0,9550.0,9550.0,N1,,22.3108333,91.8570278,Road,Z1804,Z1018,,
323,359,,SHIKALBAHA,,,248.499,,,,,,,,,,,,,,,,,,,,,,N1,C,22.306457756,91.860449028,Bridge,,,,
324,360,,SOUTH MITTACHORI,,,249.04,,,,,,,,,,,,,,,,,,,,,,N1,A,22.3026235524271,91.8635646970873,Bridge,,,,
325,361,,SHIKALBAHA BOX CULVERT,,,249.348,,,,,,,,,,,,,,,,,,,,,,N1,B,22.3002851293515,91.8652980307167,Bridge,,,,
326,362,,KADUMTOLI CULVERT,,,249.674,,,,,,,,,,,,,,,,,,,,,,N1,A,22.2975350260563,91.866363031514,Bridge,,,,
327,363,,ISLAMPUR CULVERT,,,250.215,,,,,,,,,,,,,,,,,,,,,,N1,A,22.2932366309133,91.8684360651053,Bridge,,,,
328,364,N1-40,Sikolbaha Int with Z1018-Santirhat Int. with Z1071,LRP251,3048.0,250.445,LRP251,5559.0,252.956,2.511,21.0,1105.0,808.0,898.0,621.0,987.0,194.0,694.0,2994.0,581.0,221.0,426.0,0.0,8903.0,647.0,9550.0,9550.0,N1,,22.2916663,91.8696382,Road,Z1018,Z1071,,
329,365,,NOLBILA CULVERT,,,250.519,,,,,,,,,,,,,,,,,,,,,,N1,A,22.2916421411764,91.8702911411764,Bridge,,,,
330,366,,SHIKALBAHA MORE,,,250.841,,,,,,,,,,,,,,,,,,,,,,N1,A,22.2926079302013,91.8730201176733,Bridge,,,,
331,367,,SHIKALBAHA BOX CULVERT,,,251.281,,,,,,,,,,,,,,,,,,,,,,N1,A,22.2944653526717,91.876717971374,Bridge,,,,
332,368,,Sikolbaha Bridge-1,,,251.538,,,,,,,,,,,,,,,,,,,,,,N1,A,22.2962698699619,91.8807528022813,Bridge,,,,
333,369,,SHIKALBAHA BRIDGE,,,251.538,,,,,,,,,,,,,,,,,,,,,,N1,C,22.2962698699619,91.8807528022813,Bridge,,,,
334,370,,SHANTERHAT CULVERT,,,252.506,,,,,,,,,,,,,,,,,,,,,,N1,B,22.2988369230769,91.8873512822898,Bridge,,,,
335,371,N1-41,Santirhat Int. with Z1071 - Int. with Z1070,LRP251,5559.0,252.956,LRP259,726.0,255.725,2.769,21.0,1105.0,808.0,898.0,621.0,987.0,194.0,694.0,2994.0,581.0,221.0,426.0,0.0,8903.0,647.0,9550.0,9550.0,N1,,22.3,91.8915552,Road,Z1071,Z1070,,
336,372,,SHANTERHAT BOX CULVERT,,,253.777,,,,,,,,,,,,,,,,,,,,,,N1,B,22.3021025781938,91.8992582823788,Bridge,,,,
337,373,,KUSUMPUR BOX CULVERT,,,254.333,,,,,,,,,,,,,,,,,,,,,,N1,A,22.3035365502293,91.9044227217889,Bridge,,,,
338,374,,tassi bazer(R),,,255.505,,,,,,,,,,,,,,,,,,,,,,N1,A,22.3083189877358,91.9142153009434,Bridge,,,,
339,375,,MUNSHA BOX CULVERT(L),,,255.505,,,,,,,,,,,,,,,,,,,,,,N1,B,22.3083189877358,91.9142153009434,Bridge,,,,
340,376,N1-42,Int. with Z1070 - Mansertek(Int.with N107),LRP259,726.0,255.725,LRP259,1810.0,256.809,1.084,30.0,1077.0,795.0,994.0,658.0,1483.0,305.0,658.0,3125.0,536.0,207.0,240.0,7.0,9661.0,454.0,10115.0,10115.0,N1,,22.3096944,91.91575,Road,Z1070,N107,,
341,377,,MONSHA CULVERT,,,256.378,,,,,,,,,,,,,,,,,,,,,,N1,A,22.3137546831094,91.9203176378118,Bridge,,,,
342,378,N1-43,Mansertek(Int.with N107)- Patiya (Int.with Z1059),LRP259,1810.0,256.809,LRP264,3734.0,263.744,6.935,30.0,1077.0,795.0,994.0,658.0,1483.0,305.0,658.0,3125.0,536.0,207.0,240.0,7.0,9661.0,454.0,10115.0,10115.0,N1,,22.3158889,91.9235827,Road,N107,Z1059,,
343,379,,UTTOR SONAPUR,,,256.89,,,,,,,,,,,,,,,,,,,,,,N1,A,22.3157468089473,91.9243524131578,Bridge,,,,
344,380,,Pirol,,,257.94,,,,,,,,,,,,,,,,,,,,,,N1,A,22.3137565607999,91.9339832312,Bridge,,,,
345,381,,UZIRPUR HIGH SCHOOL,,,259.795,,,,,,,,,,,,,,,,,,,,,,N1,A,22.3084394099236,91.9483886979643,Bridge,,,,
346,382,,Patiya Bridge,,,262.116,,,,,,,,,,,,,,,,,,,,,,N1,B,22.3006016043999,91.9658457726,Bridge,,,,
347,383,,PATIYA BRIDGE,,,262.116,,,,,,,,,,,,,,,,,,,,,,N1,C,22.3006016043999,91.9658457726,Bridge,,,,
348,384,N1-44,Patiya (Int.with Z1059) - Patiya Dakbanglo (Int.with Z1057),LRP264,3734.0,263.744,LRP264,4060.0,264.07,0.326,24.0,1181.0,882.0,802.0,639.0,1307.0,196.0,840.0,4070.0,910.0,819.0,3156.0,0.0,10851.0,3975.0,14826.0,14826.0,N1,,22.295333,91.9803049,Road,Z1059,Z1057,,
349,385,N1-45,Patiya Dakbanglo (Int.with Z1057) - Patiya (Int.with Z1039),LRP264,4060.0,264.07,LRP264,5400.0,265.41,1.34,24.0,1181.0,882.0,802.0,639.0,1307.0,196.0,840.0,4070.0,910.0,819.0,3156.0,0.0,10851.0,3975.0,14826.0,14826.0,N1,,22.2933608,91.9821104,Road,Z1057,Z1039,,
350,386,,PALYA BUS STATION,,,264.369,,,,,,,,,,,,,,,,,,,,,,N1,A,22.2911451997412,91.9833668252263,Bridge,,,,
351,387,N1-46,Patiya (Int.with Z1039)-Khanhat Int.with Z1026,LRP264,5400.0,265.41,LRP277,1763.0,274.982,9.572,24.0,1181.0,882.0,802.0,639.0,1307.0,196.0,840.0,4070.0,910.0,819.0,3156.0,0.0,10851.0,3975.0,14826.0,14826.0,N1,,22.2862497,91.9916941,Road,Z1039,Z1026,,
352,388,,Srimi Bridge,,,265.483,,,,,,,,,,,,,,,,,,,,,,N1,B,22.2859320161666,91.992309198,Bridge,,,,
353,389,,SRIMI BRIDGE,,,265.483,,,,,,,,,,,,,,,,,,,,,,N1,C,22.2859320161666,91.992309198,Bridge,,,,
354,390,,KOMOLMUNSHE HAT BOX CULVERT,,,266.424,,,,,,,,,,,,,,,,,,,,,,N1,B,22.2811424692972,91.9995571696216,Bridge,,,,
355,391,,KHORNA CULVERT,,,267.818,,,,,,,,,,,,,,,,,,,,,,N1,A,22.2710895749999,92.00559725,Bridge,,,,
356,392,,Korna Bridge,,,268.954,,,,,,,,,,,,,,,,,,,,,,N1,B,22.2611613745967,92.0073035838709,Bridge,,,,
357,393,,KHORNA BVS STATION,,,268.954,,,,,,,,,,,,,,,,,,,,,,N1,C,22.2611613745967,92.0073035838709,Bridge,,,,
358,394,,AJIMPUR CUL,,,269.199,,,,,,,,,,,,,,,,,,,,,,N1,C,22.2590515857142,92.0081111238095,Bridge,,,,
359,395,,MOJAFFARABAD,,,269.721,,,,,,,,,,,,,,,,,,,,,,N1,A,22.2549374824626,92.0103021287313,Bridge,,,,
360,396,,MOJAFFORABAD BOX CULVERT,,,269.99,,,,,,,,,,,,,,,,,,,,,,N1,A,22.2531199613981,92.0119718729483,Bridge,,,,
361,397,,MOJAFFORABAD,,,270.642,,,,,,,,,,,,,,,,,,,,,,N1,A,22.2487130149162,92.0158341025875,Bridge,,,,
362,398,,ROWSONAT CUL,,,271.89,,,,,,,,,,,,,,,,,,,,,,N1,A,22.24038615762,92.0217918336116,Bridge,,,,
363,399,,KANCHANAGAR CUL,,,272.356,,,,,,,,,,,,,,,,,,,,,,N1,A,22.2366345532374,92.0232647489208,Bridge,,,,
364,400,,Kanchon Nagar Bridge,,,273.008,,,,,,,,,,,,,,,,,,,,,,N1,B,22.2314978226851,92.0249656611111,Bridge,,,,
365,401,,KHANCHANAGAR BADAMTOLA,,,273.008,,,,,,,,,,,,,,,,,,,,,,N1,B,22.2314978226851,92.0249656611111,Bridge,,,,
366,402,,NORTH JOARA PAKKAR DOKAN,,,273.443,,,,,,,,,,,,,,,,,,,,,,N1,B,22.2260608528604,92.0264650356979,Bridge,,,,
367,403,,GASBAREA BOX CULVERT,,,273.878,,,,,,,,,,,,,,,,,,,,,,N1,A,22.2222719897959,92.0273785979591,Bridge,,,,
368,404,,GASBAREA COLLEGE BOX CULVERT,,,274.66,,,,,,,,,,,,,,,,,,,,,,N1,A,22.2155873504854,92.0290230394174,Bridge,,,,
369,405,N1-47,Khanhat Int.with Z1026 - Hashimpur Z1036,LRP277,1763.0,274.982,LRP281,700.0,278.013,3.031,23.0,786.0,1237.0,944.0,92.0,1267.0,109.0,811.0,6505.0,905.0,220.0,843.0,0.0,12679.0,1063.0,13742.0,13742.0,N1,,22.2131389,92.0304993,Road,Z1026,Z1036,,
370,406,,MAZAR POINT BRIDGE,,,275.943,,,,,,,,,,,,,,,,,,,,,,N1,C,22.2071026538461,92.03633246993,Bridge,,,,
371,407,,Mazar Point Bridge,,,275.943,,,,,,,,,,,,,,,,,,,,,,N1,D,22.2071026538461,92.03633246993,Bridge,,,,
372,408,,KHOLGHAR CUL,,,276.281,,,,,,,,,,,,,,,,,,,,,,N1,B,22.2049837597806,92.0383312340036,Bridge,,,,
373,409,N1-48,Hashimpur Z1036- Keranirhat N108,LRP281,700.0,278.013,LRP291,2558.0,289.612,11.599,23.0,786.0,1237.0,944.0,92.0,1267.0,109.0,811.0,6505.0,905.0,220.0,843.0,0.0,12679.0,1063.0,13742.0,13742.0,N1,,22.1917219,92.0453608,Road,Z1036,N108,,
374,410,,NOYARHAT,,,280.299,,,,,,,,,,,,,,,,,,,,,,N1,B,22.1739178955307,92.0532925435754,Bridge,,,,
375,411,,Sangu Bridge,,,282.994,,,,,,,,,,,,,,,,,,,,,,N1,B,22.1586272806451,92.0682063096774,Bridge,,,,
376,412,,SANGO BRIDGE DOMAJAR,,,282.994,,,,,,,,,,,,,,,,,,,,,,N1,C,22.1586272806451,92.0682063096774,Bridge,,,,
377,413,,KATGOR CULVERT,,,284.134,,,,,,,,,,,,,,,,,,,,,,N1,A,22.1498523145631,92.0696330718446,Bridge,,,,
378,414,,MOULOVER DOKAN,,,285.58,,,,,,,,,,,,,,,,,,,,,,N1,A,22.1369522329341,92.0699301281437,Bridge,,,,
379,415,,PATATR PULL CULVERT,,,286.08,,,,,,,,,,,,,,,,,,,,,,N1,A,22.1325208428571,92.0701565366459,Bridge,,,,
380,416,,Pathanerpul Bridge,,,286.378,,,,,,,,,,,,,,,,,,,,,,N1,A,22.1299160285714,92.0706024714285,Bridge,,,,
381,417,,PATANER PULL(BRIDGE),,,286.378,,,,,,,,,,,,,,,,,,,,,,N1,A,22.1299160285714,92.0706024714285,Bridge,,,,
382,418,,Noyakhalar Muk Bridge,,,286.631,,,,,,,,,,,,,,,,,,,,,,N1,A,22.1277338010309,92.0710012276288,Bridge,,,,
383,419,,NOYAKHALAR MUK,,,286.631,,,,,,,,,,,,,,,,,,,,,,N1,A,22.1277338010309,92.0710012276288,Bridge,,,,
384,420,,NOYAKHALARMUK,,,287.144,,,,,,,,,,,,,,,,,,,,,,N1,A,22.1230775989717,92.071701048329,Bridge,,,,
385,421,,NOYA KHALAR MUK (KARANIERHAT) BOX CULVERT,,,287.487,,,,,,,,,,,,,,,,,,,,,,N1,A,22.1204875006655,92.0719705134775,Bridge,,,,
386,422,,KARANERHAT CULVERT,,,288.329,,,,,,,,,,,,,,,,,,,,,,N1,A,22.1133524851063,92.0726869042553,Bridge,,,,
387,423,N1-49,Keranirhat N108 - Int.with Z1019,LRP291,2558.0,289.612,LRP291,2920.0,289.974,0.362,23.0,786.0,1237.0,944.0,92.0,1267.0,109.0,811.0,6505.0,905.0,220.0,843.0,0.0,12679.0,1063.0,13742.0,13742.0,N1,,22.1021667,92.0740549,Road,N108,Z1019,,
388,424,,KARANERHAT CULVERT,,,289.889,,,,,,,,,,,,,,,,,,,,,,N1,A,22.09827857,92.074800422,Bridge,,,,
389,425,N1-50,"Int.with Z1019 - Lohagara, Bara Aulia (Int.with Z1013)",LRP291,2920.0,289.974,LRP299,2769.0,297.441,7.467,23.0,786.0,1237.0,944.0,92.0,1267.0,109.0,811.0,6505.0,905.0,220.0,843.0,0.0,12679.0,1063.0,13742.0,13742.0,N1,,22.0977497,92.0750271,Road,Z1019,Z1013,,
390,426,,KOACHIA(MADARBHI),,,290.719,,,,,,,,,,,,,,,,,,,,,,N1,A,22.0935775004504,92.0805047995495,Bridge,,,,
391,427,,MITADIGI ACADEMY,,,292.426,,,,,,,,,,,,,,,,,,,,,,N1,A,22.0840668315789,92.093196937799,Bridge,,,,
392,428,,MITADIGI,,,293.134,,,,,,,,,,,,,,,,,,,,,,N1,A,22.080520608,92.0984855314285,Bridge,,,,
393,429,,RAJGHATA BRIDGE,,,294.534,,,,,,,,,,,,,,,,,,,,,,N1,A,22.0695600813559,92.1042754237288,Bridge,,,,
394,430,,Raj Ghata Bridge,,,294.534,,,,,,,,,,,,,,,,,,,,,,N1,B,22.0695600813559,92.1042754237288,Bridge,,,,
395,431,,THAKUR DIGI BOX CULVERT,,,294.77,,,,,,,,,,,,,,,,,,,,,,N1,A,22.0679099558303,92.1055530035335,Bridge,,,,
396,432,,Khoria Nagar Bridge,,,295.295,,,,,,,,,,,,,,,,,,,,,,N1,A,22.0637567157894,92.1071061094736,Bridge,,,,
397,433,,KHORIANAGAR BRIDGE,,,295.295,,,,,,,,,,,,,,,,,,,,,,N1,A,22.0637567157894,92.1071061094736,Bridge,,,,
398,434,,NOYA PARA BOX CULVERT,,,295.625,,,,,,,,,,,,,,,,,,,,,,N1,A,22.06088615,92.10773337,Bridge,,,,
399,435,,PODUA NOYA PARA BOX CULVERT,,,296.135,,,,,,,,,,,,,,,,,,,,,,N1,A,22.0565051155339,92.1090854592233,Bridge,,,,
400,436,,PODUA BAZAR BOX CULVERT,,,296.647,,,,,,,,,,,,,,,,,,,,,,N1,A,22.0519296419354,92.1090613887096,Bridge,,,,
401,437,,PODUA BAZAR BOX CULVERT,,,297.034,,,,,,,,,,,,,,,,,,,,,,N1,A,22.0483713234624,92.1081938519362,Bridge,,,,
402,438,N1-51,"Lohagara, Bara Aulia (Int.with Z1013) - Chunati R171",LRP299,2769.0,297.441,LRP312,171.0,307.582,10.141,42.0,2364.0,1215.0,1015.0,787.0,2025.0,345.0,1013.0,1668.0,779.0,642.0,728.0,0.0,11253.0,1370.0,12623.0,12623.0,N1,,22.0449719,92.1078333,Road,Z1013,R171,,
403,439,,BARO AWLIA(R),,,297.569,,,,,,,,,,,,,,,,,,,,,,N1,A,22.0440962566176,92.1070629529411,Bridge,,,,
404,440,,TALOCKDNR PARA BOX CULVERT,,,298.405,,,,,,,,,,,,,,,,,,,,,,N1,A,22.0375898525773,92.1039891092783,Bridge,,,,
405,441,,TALOCKDAR PARA,,,298.405,,,,,,,,,,,,,,,,,,,,,,N1,A,22.0375898525773,92.1039891092783,Bridge,,,,
406,442,,AMIRABAD BOX CULVERT,,,299.057,,,,,,,,,,,,,,,,,,,,,,N1,A,22.031864884656,92.1041246666666,Bridge,,,,
407,443,,Amirabad Bridge,,,299.434,,,,,,,,,,,,,,,,,,,,,,N1,A,22.0287013636363,92.1034293272727,Bridge,,,,
408,444,,AMIRABAD PC GIDER BRIDGE,,,299.434,,,,,,,,,,,,,,,,,,,,,,N1,A,22.0287013636363,92.1034293272727,Bridge,,,,
409,445,,AMIRABAD LOHAGOR BOX CULVERT,,,299.756,,,,,,,,,,,,,,,,,,,,,,N1,A,22.0260045474972,92.1026967443826,Bridge,,,,
410,446,,AMIRABAD LOHAGORA BOX CULVERT,,,300.406,,,,,,,,,,,,,,,,,,,,,,N1,A,22.0204980278439,92.1014277681473,Bridge,,,,
411,447,,LOHAGORA L.S BOX CULVERT,,,302.237,,,,,,,,,,,,,,,,,,,,,,N1,A,22.0078200503225,92.0927765812903,Bridge,,,,
412,448,,DIGIRPARK BOX CULVERT,,,302.729,,,,,,,,,,,,,,,,,,,,,,N1,A,22.0041726139784,92.0905686346236,Bridge,,,,
413,449,,DIGIRPAR BOX CULVERT,,,303.237,,,,,,,,,,,,,,,,,,,,,,N1,A,22.00042964,92.0883193766666,Bridge,,,,
414,450,,ZADUNAGOR FILLING BOX CULVERT,,,303.782,,,,,,,,,,,,,,,,,,,,,,N1,A,21.9958359641681,92.0874589126142,Bridge,,,,
415,451,,ZADUNAPUR SHAPIR FILLING STATION -(2) BOX CULVERT,,,303.793,,,,,,,,,,,,,,,,,,,,,,N1,A,21.9957410021937,92.0874460645338,Bridge,,,,
416,452,,Khasmahal Bridge,,,304.217,,,,,,,,,,,,,,,,,,,,,,N1,A,21.9922334387096,92.0863582073732,Bridge,,,,
417,453,,KHASMOHAL ADUNAICR PC GIDER BRIDGE,,,304.217,,,,,,,,,,,,,,,,,,,,,,N1,A,21.9922334387096,92.0863582073732,Bridge,,,,
418,454,,ZADUNAGOR BUS STATION BOX CULVERT,,,304.449,,,,,,,,,,,,,,,,,,,,,,N1,A,21.990280244375,92.08568596625,Bridge,,,,
419,455,,Aadunagor bridge,,,304.857,,,,,,,,,,,,,,,,,,,,,,N1,A,21.9870408741379,92.0839943655172,Bridge,,,,
420,456,,Adunagar Bridge,,,304.857,,,,,,,,,,,,,,,,,,,,,,N1,B,21.9870408741379,92.0839943655172,Bridge,,,,
421,457,,HATIAR PULL PC GIDER BRIDGE,,,305.527,,,,,,,,,,,,,,,,,,,,,,N1,A,21.9819040437735,92.080773326415,Bridge,,,,
422,458,,Hatirpul Bridge,,,305.527,,,,,,,,,,,,,,,,,,,,,,N1,B,21.9819040437735,92.080773326415,Bridge,,,,
423,459,,HATIAR PULL BOX CULVERT,,,305.794,,,,,,,,,,,,,,,,,,,,,,N1,A,21.9804623633858,92.0788716271653,Bridge,,,,
424,460,,SHIX DAR PARA BOX CULVERT,,,306.139,,,,,,,,,,,,,,,,,,,,,,N1,A,21.979298574269,92.0758492263157,Bridge,,,,
425,461,,MUSKAMPANI PARA BOX CULVERT,,,307.229,,,,,,,,,,,,,,,,,,,,,,N1,A,21.9738684029498,92.0683204789577,Bridge,,,,
426,462,N1-52,Chunati R171 - Aziznagar Z1007,LRP312,171.0,307.582,LRP320,308.0,315.728,8.146,42.0,2364.0,1215.0,1015.0,787.0,2025.0,345.0,1013.0,1668.0,779.0,642.0,728.0,0.0,11253.0,1370.0,12623.0,12623.0,N1,,21.9720827,92.0657222,Road,R171,Z1007,,
427,463,,AODU NAGOR (2) BOX CULVERT,,,307.981,,,,,,,,,,,,,,,,,,,,,,N1,A,21.9689581196808,92.0641501117021,Bridge,,,,
428,464,,Rataykul Bridge,,,308.652,,,,,,,,,,,,,,,,,,,,,,N1,A,21.9622138572549,92.0633168764705,Bridge,,,,
429,465,,RATAR KUL- SONTI BRIDGE,,,308.652,,,,,,,,,,,,,,,,,,,,,,N1,A,21.9622138572549,92.0633168764705,Bridge,,,,
430,466,,BONPUKR PARA BOX CULVERT,,,309.038,,,,,,,,,,,,,,,,,,,,,,N1,A,21.9592401112903,92.0652791298387,Bridge,,,,
431,467,,BON PUKUL PARA BOX CULVERT,,,309.355,,,,,,,,,,,,,,,,,,,,,,N1,A,21.9580321636363,92.0663932818182,Bridge,,,,
432,468,,SANTI RCC GIDER BRIDGE,,,309.971,,,,,,,,,,,,,,,,,,,,,,N1,A,21.9520795406909,92.0678138084453,Bridge,,,,
433,469,,Santi Bridge,,,309.971,,,,,,,,,,,,,,,,,,,,,,N1,B,21.9520795406909,92.0678138084453,Bridge,,,,
434,470,,SANTI BOX CULVERT,,,310.723,,,,,,,,,,,,,,,,,,,,,,N1,A,21.9453993720173,92.0669286609544,Bridge,,,,
435,471,,BRICK FIELD BOX CULVERT,,,311.886,,,,,,,,,,,,,,,,,,,,,,N1,A,21.9360290154471,92.0625427235772,Bridge,,,,
436,472,,BACK FILD BOX CULVERT,,,312.138,,,,,,,,,,,,,,,,,,,,,,N1,A,21.9339454415019,92.0616661541501,Bridge,,,,
437,473,,AZIZNAGOR FOREST BOX CULVERT,,,312.354,,,,,,,,,,,,,,,,,,,,,,N1,A,21.9323086726114,92.0608009579617,Bridge,,,,
438,474,,AZIZ NOGOR FOREST BOX CULVERT,,,312.609,,,,,,,,,,,,,,,,,,,,,,N1,A,21.93038125,92.0596840375,Bridge,,,,
439,475,,AZIZNAGOR BOX CULVERT,,,313.947,,,,,,,,,,,,,,,,,,,,,,N1,A,21.9179119605128,92.0597362988034,Bridge,,,,
440,476,,AZIZ NOGAR BOX CULVERT,,,314.144,,,,,,,,,,,,,,,,,,,,,,N1,A,21.9167591663366,92.0599899313531,Bridge,,,,
441,477,,AZIZ NAGOR 1,,,314.502,,,,,,,,,,,,,,,,,,,,,,N1,A,21.9140727206278,92.0605472089686,Bridge,R 1,,,
442,478,,AZIZ NAGOR 2,,,315.009,,,,,,,,,,,,,,,,,,,,,,N1,A,21.909622912133,92.0605661266144,Bridge,R 2,,,
443,479,N1-53,Aziznagar (Int.with Z1007)-Harbang (Int.with Z1124),LRP320,308.0,315.728,LRP321,63.0,316.356,0.628,42.0,2364.0,1215.0,1015.0,787.0,2025.0,345.0,1013.0,1668.0,779.0,642.0,728.0,0.0,11253.0,1370.0,12623.0,12623.0,N1,,21.9031667,92.0611667,Road,Z1007,Z1124,,
444,480,N1-54,Harbang (Int.with Z1124) - Ekatabazar Z1125,LRP321,63.0,316.356,LRP328,485.0,323.842,7.486,42.0,2364.0,1215.0,1015.0,787.0,2025.0,345.0,1013.0,1668.0,779.0,642.0,728.0,0.0,11253.0,1370.0,12623.0,12623.0,N1,,21.89646793301105,92.06108684571824,Road,Z1124,Z1125,,
445,481,,HARBHANG CHOR,,,317.001,,,,,,,,,,,,,,,,,,,,,,N1,A,21.8910236519337,92.0597010756906,Bridge,,,,
446,482,,GHOIL MARA BOX CULVERT,,,318.11,,,,,,,,,,,,,,,,,,,,,,N1,A,21.8812215213685,92.0590015447779,Bridge,,,,
447,483,,HARBANG,,,318.796,,,,,,,,,,,,,,,,,,,,,,N1,A,21.8751197401574,92.0591098413385,Bridge,,,,
448,484,,HARBANG,,,320.189,,,,,,,,,,,,,,,,,,,,,,N1,A,21.8628351415656,92.0594848712238,Bridge,,,,
449,485,,HARBANGCHORA,,,320.513,,,,,,,,,,,,,,,,,,,,,,N1,A,21.8599725797297,92.0601907085585,Bridge,,,,
450,486,,Harbang Chora Bridge,,,320.513,,,,,,,,,,,,,,,,,,,,,,N1,C,21.8599725797297,92.0601907085585,Bridge,,,,
451,487,,ALIPUR BOX CULVERT,,,321.305,,,,,,,,,,,,,,,,,,,,,,N1,A,21.8529287900552,92.0609576198894,Bridge,,,,
452,488,,HARBANG,,,321.536,,,,,,,,,,,,,,,,,,,,,,N1,A,21.8508595323144,92.0609491344978,Bridge,,,,
453,489,,HAR BAG BOX CULVERT,,,322.5,,,,,,,,,,,,,,,,,,,,,,N1,A,21.8429700741784,92.0635984638497,Bridge,,,,
454,490,,HAR BAG BOX CULVERT,,,322.823,,,,,,,,,,,,,,,,,,,,,,N1,A,21.8403935683229,92.0649325472049,Bridge,,,,
455,491,,ATKOTA,,,323.619,,,,,,,,,,,,,,,,,,,,,,N1,A,21.8341033152866,92.0682735910828,Bridge,,,,
456,492,N1-55,Ekatabazar Z1125 - Baraitali Int.with Z1002,LRP328,485.0,323.842,LRP331,844.0,327.188,3.346,44.0,774.0,249.0,749.0,144.0,1058.0,202.0,661.0,1133.0,552.0,233.0,267.0,0.0,5566.0,500.0,6066.0,6066.0,N1,,21.8322216,92.0689993,Road,Z1125,Z1002,,
457,493,,AKOTA BAZAR BOX CULVERT,,,324.331,,,,,,,,,,,,,,,,,,,,,,N1,A,21.8280258214285,92.0713035547619,Bridge,,,,
458,494,,BODOI TOLA RCC GIDER BRIDGE,,,324.607,,,,,,,,,,,,,,,,,,,,,,N1,A,21.8257831806122,92.0723466282313,Bridge,,,,
459,495,,Bodoitola Bridge,,,324.607,,,,,,,,,,,,,,,,,,,,,,N1,C,21.8257831806122,92.0723466282313,Bridge,,,,
460,496,,BODAITALI BOX CULVERT,,,325.153,,,,,,,,,,,,,,,,,,,,,,N1,A,21.8211428750483,92.0740201388781,Bridge,,,,
461,497,,BODOITOLI BOX CULVERT,,,325.49,,,,,,,,,,,,,,,,,,,,,,N1,A,21.8181692602209,92.0739442353591,Bridge,,,,
462,498,N1-56,Baraitali Int.with Z1002-Int.with Z1126,LRP331,844.0,327.188,LRP335,500.0,330.874,3.686,44.0,774.0,249.0,749.0,144.0,1058.0,202.0,661.0,1133.0,552.0,233.0,267.0,0.0,5566.0,500.0,6066.0,6066.0,N1,,21.8045278,92.077166,Road,Z1002,Z1126,,
463,499,,BANIYAR CHORA,,,327.312,,,,,,,,,,,,,,,,,,,,,,N1,A,21.8034238025641,92.0772322128205,Bridge,,,,
464,500,,NOL BELA-1 BOX CULVERT,,,329.084,,,,,,,,,,,,,,,,,,,,,,N1,A,21.787854008387,92.0788540064516,Bridge,,,,
465,501,,NOL BELA BOX CULVERT,,,329.181,,,,,,,,,,,,,,,,,,,,,,N1,A,21.786997484,92.0789493159999,Bridge,,,,
466,502,,NOLBELA BOX CULVERT,,,329.499,,,,,,,,,,,,,,,,,,,,,,N1,B,21.7841953311111,92.0792425355555,Bridge,,,,
467,503,N1-57,Int.with Z1126-Janatabazar (Int.with Z1127),LRP335,500.0,330.874,LRP336,764.0,332.066,1.192,44.0,774.0,249.0,749.0,144.0,1058.0,202.0,661.0,1133.0,552.0,233.0,267.0,0.0,5566.0,500.0,6066.0,6066.0,N1,,21.7737216,92.0840552,Road,Z1126,Z1127,,
468,504,,DIDDA BAZAR BOX CULVERT,,,330.931,,,,,,,,,,,,,,,,,,,,,,N1,A,21.7735339222222,92.0839144733333,Bridge,,,,
469,505,,MATHAMUHURI BRIDGE,,,331.259,,,,,,,,,,,,,,,,,,,,,,N1,C,21.7715943354948,92.0821099546075,Bridge,,,,
470,506,,Mathamuhuri Bridge,,,331.259,,,,,,,,,,,,,,,,,,,,,,N1,D,21.7715943354948,92.0821099546075,Bridge,,,,
471,507,N1-58,Janatabazar (Int.with Z1127) - Chokoria R172,LRP336,764.0,332.066,LRP336,1575.0,332.877,0.811,44.0,774.0,249.0,749.0,144.0,1058.0,202.0,661.0,1133.0,552.0,233.0,267.0,0.0,5566.0,500.0,6066.0,6066.0,N1,,21.7664722,92.0767771,Road,Z1127,R172,,
472,508,N1-59,Chokoria R172 - Faishakhali Z1005,LRP336,1575.0,332.877,LRP341,852.0,337.31,4.433,39.0,1009.0,549.0,784.0,238.0,1018.0,165.0,318.0,2511.0,1443.0,428.0,4183.0,0.0,8074.0,4611.0,12685.0,12685.0,N1,,21.7596389,92.0764993,Road,R172,Z1005,,
473,509,,BANDI BAZAR BOX CULVERT,,,335.192,,,,,,,,,,,,,,,,,,,,,,N1,B,21.7401466184971,92.0826243745664,Bridge,,,,
474,510,,KUMARIKOOL BOX CULVERT,,,335.38,,,,,,,,,,,,,,,,,,,,,,N1,A,21.7385629191489,92.0831876319149,Bridge,,,,
475,511,,PASIYAKALI BOX CULVERT,,,336.054,,,,,,,,,,,,,,,,,,,,,,N1,A,21.7326068595588,92.0837488330882,Bridge,,,,
476,512,,PASIYAKALI (2),,,336.237,,,,,,,,,,,,,,,,,,,,,,N1,A,21.7309878314917,92.0838156441988,Bridge,,,,
477,513,,Pasiyakali Bridge,,,336.237,,,,,,,,,,,,,,,,,,,,,,N1,C,21.7309878314917,92.0838156441988,Bridge,,,,
478,514,,HASIRUGIGI,,,337.019,,,,,,,,,,,,,,,,,,,,,,N1,A,21.7240739341074,92.083544148476,Bridge,,,,
479,515,N1-60,Faishakhali Z1005- Dulahazra Z1130,LRP341,852.0,337.31,LRP348,96.0,343.559,6.249,35.0,595.0,159.0,412.0,136.0,760.0,118.0,109.0,1548.0,403.0,118.0,450.0,0.0,4275.0,568.0,4843.0,4843.0,N1,,21.7215549,92.0830827,Road,Z1005,Z1130,,
480,516,,CHOHAJANYA (1),,,338.859,,,,,,,,,,,,,,,,,,,,,,N1,A,21.7092513759013,92.0806750603415,Bridge,,,,
481,517,,CHOHAJANIYA (2),,,339.648,,,,,,,,,,,,,,,,,,,,,,N1,A,21.7028300370967,92.0786456251612,Bridge,,,,
482,518,,JASJARI BRIDGE,,,342.77,,,,,,,,,,,,,,,,,,,,,,N1,A,21.676279289928,92.0768074748201,Bridge,,,,
483,519,,Polia Fari Bridge,,,342.77,,,,,,,,,,,,,,,,,,,,,,N1,C,21.676279289928,92.0768074748201,Bridge,,,,
484,520,,DULAHAJARA (SAFARI PARK),,,343.243,,,,,,,,,,,,,,,,,,,,,,N1,A,21.6721049602836,92.0763992531915,Bridge,,,,
485,521,N1-61,Dulahazra Z1130-Khutakhali Z1131,LRP348,96.0,343.559,LRP354,509.0,350.054,6.495,35.0,595.0,159.0,412.0,136.0,760.0,118.0,109.0,1548.0,403.0,118.0,450.0,0.0,4275.0,568.0,4843.0,4843.0,N1,,21.6688327,92.0759438,Road,Z1130,Z1131,,
486,522,,DULAHAJARA CULVERT,,,344.209,,,,,,,,,,,,,,,,,,,,,,N1,A,21.6629404415143,92.075071645953,Bridge,,,,
487,523,,DULAHAJAR BRIDGE,,,344.531,,,,,,,,,,,,,,,,,,,,,,N1,A,21.6600543017045,92.0751025664772,Bridge,,,,
488,524,,Dulahajar Bridge,,,344.531,,,,,,,,,,,,,,,,,,,,,,N1,C,21.6600543017045,92.0751025664772,Bridge,,,,
489,525,,BOYRAGIR KHIL,,,345.592,,,,,,,,,,,,,,,,,,,,,,N1,C,21.6508560658227,92.0735619202531,Bridge,,,,
490,526,,Boyragir Khil Bridge,,,345.592,,,,,,,,,,,,,,,,,,,,,,N1,C,21.6508560658227,92.0735619202531,Bridge,,,,
491,527,,PAGOLARIBIL,,,345.911,,,,,,,,,,,,,,,,,,,,,,N1,A,21.6480847609561,92.0733292227091,Bridge,,,,
492,528,,KHUTAKHALI,,,349.092,,,,,,,,,,,,,,,,,,,,,,N1,B,21.6225351880109,92.0737034768392,Bridge,,,,
493,529,,Khutakhali Bazar Bridge,,,349.759,,,,,,,,,,,,,,,,,,,,,,N1,A,21.618376660401,92.0691713375939,Bridge,,,,
494,530,,khutakhali bazar,,,349.759,,,,,,,,,,,,,,,,,,,,,,N1,B,21.618376660401,92.0691713375939,Bridge,,,,
495,531,N1-62,Khutakhali Z1131 - Ramu (Int.with Z1001),LRP354,509.0,350.054,LRP376,57.0,370.982,20.928,35.0,595.0,159.0,412.0,136.0,760.0,118.0,109.0,1548.0,403.0,118.0,450.0,0.0,4275.0,568.0,4843.0,4843.0,N1,,21.6150556,92.0667771,Road,Z1131,Z1001,,
496,532,,FULCHARI (NEWPARA),,,350.674,,,,,,,,,,,,,,,,,,,,,,N1,A,21.6065189670012,92.0623070695106,Bridge,,,,
497,533,,FULCHARI (NEWPARA),,,350.99,,,,,,,,,,,,,,,,,,,,,,N1,A,21.6051753127979,92.0621198087829,Bridge,,,,
498,534,,FULCHARI CULVERT,,,351.628,,,,,,,,,,,,,,,,,,,,,,N1,A,21.5985935301507,92.061801241206,Bridge,,,,
499,535,,FULCHARI BAZAR,,,352.064,,,,,,,,,,,,,,,,,,,,,,N1,A,21.5960736973421,92.0614095408637,Bridge,,,,
500,536,,NAPITE KHALI CULVERT,,,352.641,,,,,,,,,,,,,,,,,,,,,,N1,A,21.5894309740196,92.0630313509804,Bridge,,,,
501,537,,NAPITE KHALI,,,353.162,,,,,,,,,,,,,,,,,,,,,,N1,C,21.5876028,92.0649047857142,Bridge,,,,
502,538,,EAST NAPITL KHAL BOX CULVERT,,,353.694,,,,,,,,,,,,,,,,,,,,,,N1,A,21.5830741250341,92.0657158465116,Bridge,,,,
503,539,,NAEK KHALI BOX CULVERT,,,354.739,,,,,,,,,,,,,,,,,,,,,,N1,A,21.5744075162901,92.0707446712247,Bridge,,,,
504,540,,KHODIA BARI PRIMARY BOX CULVERT,,,356.261,,,,,,,,,,,,,,,,,,,,,,N1,A,21.5623201688888,92.0698139251851,Bridge,,,,
505,541,,ISLAMABAD KHODIABARI BOX CULVERT,,,356.517,,,,,,,,,,,,,,,,,,,,,,N1,A,21.5603042595174,92.0691476,Bridge,,,,
506,542,,ISLAMABAD KHODIA BARI BOX CULVERT,,,356.631,,,,,,,,,,,,,,,,,,,,,,N1,A,21.5594892512064,92.0689481,Bridge,,,,
507,543,,Eidgaon Bazar Bridge,,,357.264,,,,,,,,,,,,,,,,,,,,,,N1,A,21.5554256122448,92.0679503244898,Bridge,,,,
508,544,,EIDGAON BAZAR PC GIDER BRIDGE,,,357.264,,,,,,,,,,,,,,,,,,,,,,N1,A,21.5554256122448,92.0679503244898,Bridge,,,,
509,545,,Goro Bazar Bridge,,,358.03,,,,,,,,,,,,,,,,,,,,,,N1,A,21.5470666065573,92.0668953754098,Bridge,,,,
510,546,,eidgaon,,,358.03,,,,,,,,,,,,,,,,,,,,,,N1,C,21.5470666065573,92.0668953754098,Bridge,,,,
511,547,,SHAT GOREA PARA BOX CULVERT,,,360.345,,,,,,,,,,,,,,,,,,,,,,N1,A,21.5255297395348,92.0653252244186,Bridge,,,,
512,548,,KALIRCHARA BOX CULVERT,,,360.551,,,,,,,,,,,,,,,,,,,,,,N1,A,21.5237332279069,92.0655747598837,Bridge,,,,
513,549,,KALIRCHARA BAZAR BOX CULVERT,,,360.89,,,,,,,,,,,,,,,,,,,,,,N1,A,21.5207709407407,92.0661440629629,Bridge,,,,
514,550,,KALIRCHAR,,,361.043,,,,,,,,,,,,,,,,,,,,,,N1,A,21.5195088091891,92.0666746302702,Bridge,,,,
515,551,,RASHIDNAGAR,,,361.751,,,,,,,,,,,,,,,,,,,,,,N1,A,21.5137419731132,92.069340890566,Bridge,,,,
516,552,,ROSHIDNAGAR CULVERT,,,362.168,,,,,,,,,,,,,,,,,,,,,,N1,A,21.5104396976562,92.0708606554687,Bridge,,,,
517,553,,DOLERCHARA CULVERT,,,362.691,,,,,,,,,,,,,,,,,,,,,,N1,A,21.5065069274647,92.0733026419014,Bridge,,,,
518,554,,DOLERCHARA CULVERT,,,362.889,,,,,,,,,,,,,,,,,,,,,,N1,A,21.5051319429577,92.0744452552816,Bridge,,,,
519,555,,ROSHIDNAGAR (2),,,364.056,,,,,,,,,,,,,,,,,,,,,,N1,A,21.4957534922651,92.0776785856353,Bridge,,,,
520,556,,"ROSHIDNAGAR U,R CULVERT",,,364.184,,,,,,,,,,,,,,,,,,,,,,N1,A,21.4948695143646,92.0783346952486,Bridge,,,,
521,557,,JOARIANALA CULVERT,,,366.98,,,,,,,,,,,,,,,,,,,,,,N1,A,21.4782130684357,92.0947151779329,Bridge,,,,
522,558,,JOARIANALA,,,367.362,,,,,,,,,,,,,,,,,,,,,,N1,A,21.4755164496,92.0967866511999,Bridge,,,,
523,559,,JORIANALA,,,367.6,,,,,,,,,,,,,,,,,,,,,,N1,A,21.4738446327586,92.0980125862068,Bridge,,,,
524,560,,JOARIANALA BAZAR PC GIDER BRIDGE(L),,,368.129,,,,,,,,,,,,,,,,,,,,,,N1,A,21.470055530337,92.1006402232209,Bridge,,,,
525,561,,Joarianala Bazar Bridge,,,368.129,,,,,,,,,,,,,,,,,,,,,,N1,A,21.470055530337,92.1006402232209,Bridge,,,,
526,562,,JOARIANALA BAZAR(R),,,368.129,,,,,,,,,,,,,,,,,,,,,,N1,A,21.470055530337,92.1006402232209,Bridge,,,,
527,563,,JOARIANALA CULVERT,,,368.703,,,,,,,,,,,,,,,,,,,,,,N1,B,21.4655415307901,92.1026566882833,Bridge,,,,
528,564,,MITA CHARI BOX CULVERT,,,370.799,,,,,,,,,,,,,,,,,,,,,,N1,A,21.4505569351351,92.0994681432432,Bridge,,,,
529,565,N1-63,Ramu (Int.with Z1001)-Ramu Intersection N109,LRP376,57.0,370.982,LRP378,593.0,373.475,2.493,35.0,595.0,159.0,412.0,136.0,760.0,118.0,109.0,1548.0,403.0,118.0,450.0,0.0,4275.0,568.0,4843.0,4843.0,N1,,21.4494719,92.0995274,Road,Z1001,N109,,
530,566,,RAMU HOSPITAL GATE,,,371.64,,,,,,,,,,,,,,,,,,,,,,N1,A,21.4433865625,92.1012678785714,Bridge,,,,
531,567,,Mitacmari Ramu Bridge,,,371.848,,,,,,,,,,,,,,,,,,,,,,N1,A,21.4418389714285,92.1007083571428,Bridge,,,,
532,568,,MITACMARI RAMU BRIDGE,,,371.848,,,,,,,,,,,,,,,,,,,,,,N1,B,21.4418389714285,92.1007083571428,Bridge,,,,
533,569,,MARULA (WEST),,,372.43,,,,,,,,,,,,,,,,,,,,,,N1,A,21.4372009552325,92.0983672723837,Bridge,,,,
534,570,,MARULA BOX CULVERT,,,372.782,,,,,,,,,,,,,,,,,,,,,,N1,A,21.4342084624161,92.0972607067114,Bridge,,,,
535,571,,RAMU BRAC OFFICE,,,373.192,,,,,,,,,,,,,,,,,,,,,,N1,A,21.4308087593886,92.0961182921397,Bridge,,,,
536,572,,RAMU BY PASS MORE,,,373.424,,,,,,,,,,,,,,,,,,,,,,N1,A,21.4288400316455,92.0953913860759,Bridge,,,,
537,573,N1-64,Ramu Intersection N109 - Coxsbazar Link Road N110,LRP378,593.0,373.475,LRP386,724.0,381.481,8.006,35.0,595.0,159.0,412.0,136.0,760.0,118.0,109.0,1548.0,403.0,118.0,450.0,0.0,4275.0,568.0,4843.0,4843.0,N1,,21.4284993,92.0951941,Road,N109,N110,,
538,574,,RAMU MOUR BOX CULVDERT,,,373.598,,,,,,,,,,,,,,,,,,,,,,N1,A,21.4283515971831,92.0940714267605,Bridge,,,,
539,575,,ROMA CALLAGE BOX CULVERT,,,374.081,,,,,,,,,,,,,,,,,,,,,,N1,A,21.427895984,92.089450816,Bridge,,,,
540,576,,ROMA TECHIPUL,,,374.655,,,,,,,,,,,,,,,,,,,,,,N1,A,21.4271063768115,92.0840258231884,Bridge,,,,
541,577,,SAMBAR PUL CULVERT,,,375.035,,,,,,,,,,,,,,,,,,,,,,N1,A,21.4267747132812,92.0804427367187,Bridge,,,,
542,578,,CHAKMARKOOL,,,375.416,,,,,,,,,,,,,,,,,,,,,,N1,A,21.4264716,92.0767771,Bridge,,,,
543,579,,CHAKMAR KOOL BOX CULVERT,,,376.062,,,,,,,,,,,,,,,,,,,,,,N1,A,21.4273654498084,92.0708934808429,Bridge,,,,
544,580,,KHURUTIA BOX CULVERT,,,376.931,,,,,,,,,,,,,,,,,,,,,,N1,A,21.4271759977099,92.0634431893129,Bridge,,,,
545,581,,KHURULIA CULVERT,,,377.189,,,,,,,,,,,,,,,,,,,,,,N1,A,21.4273089357414,92.0610656669201,Bridge,,,,
546,582,,KHURULIA SCHOOL BOX CULVERT,,,377.519,,,,,,,,,,,,,,,,,,,,,,N1,A,21.4278354522255,92.0579673860534,Bridge,,,,
547,583,,KHURULIA SCHOOL BOX CULVERT,,,377.753,,,,,,,,,,,,,,,,,,,,,,N1,A,21.4280296848739,92.0557570361344,Bridge,,,,
548,584,,KHURULIA CHAIRMAN PARA BOX CULVERT,,,378.02,,,,,,,,,,,,,,,,,,,,,,N1,A,21.4280584948275,92.0532281715517,Bridge,,,,
549,585,,Sarkarpara Bridge,,,378.492,,,,,,,,,,,,,,,,,,,,,,N1,A,21.4275245,92.0486482172786,Bridge,,,,
550,586,,SARKAR PARA BRIDGE,,,378.492,,,,,,,,,,,,,,,,,,,,,,N1,A,21.4275245,92.0486482172786,Bridge,,,,
551,587,,WEST DOVGE BOX CULVERT,,,379.004,,,,,,,,,,,,,,,,,,,,,,N1,A,21.4294452102564,92.0443807192307,Bridge,,,,
552,588,,MUKTAR KUL,,,379.504,,,,,,,,,,,,,,,,,,,,,,N1,A,21.4297884,92.0395945696,Bridge,,,,
553,589,,BAKKHALI BRIDGE,,,380.346,,,,,,,,,,,,,,,,,,,,,,N1,A,21.4294033629834,92.0318887491712,Bridge,,,,
554,590,,Bakkhali Bridge,,,380.346,,,,,,,,,,,,,,,,,,,,,,N1,C,21.4294033629834,92.0318887491712,Bridge,,,,
555,591,,MOHURI RARA BOX,,,380.615,,,,,,,,,,,,,,,,,,,,,,N1,A,21.4303257834586,92.0296206984962,Bridge,,,,
556,592,,RABAR DAM BOX,,,380.759,,,,,,,,,,,,,,,,,,,,,,N1,A,21.4301539217391,92.0283434956521,Bridge,,,,
557,593,,LINK ROAD CULVERT,,,381.374,,,,,,,,,,,,,,,,,,,,,,N1,A,21.426498621044,92.0238834076672,Bridge,,,,
558,594,N1-65,Coxsbazar Link Road N110-Maricha Z1009,LRP386,724.0,381.481,LRP403,217.0,398.205,16.724,24.0,455.0,137.0,129.0,200.0,568.0,131.0,142.0,2476.0,419.0,97.0,1042.0,0.0,4681.0,1139.0,5820.0,5820.0,N1,,21.4258604,92.023166,Road,N110,Z1009,,
559,595,,BESIC AREA,,,381.985,,,,,,,,,,,,,,,,,,,,,,N1,C,21.423063061512,92.0267879589347,Bridge,,,,
560,596,,BASIC ARIA (1),,,382.055,,,,,,,,,,,,,,,,,,,,,,N1,C,21.4226721680412,92.0272924520618,Bridge,,,,
561,597,,KAMBIR GONA,,,382.649,,,,,,,,,,,,,,,,,,,,,,N1,C,21.4194017834586,92.031682906015,Bridge,,,,
562,598,,HAMBIR GONA (1),,,383.098,,,,,,,,,,,,,,,,,,,,,,N1,B,21.4170232427616,92.0347260730512,Bridge,,,,
563,599,,HAMBIR GONA-(2),,,383.269,,,,,,,,,,,,,,,,,,,,,,N1,C,21.4161167631868,92.0359357093406,Bridge,,,,
564,600,,KANAR PARA,,,383.632,,,,,,,,,,,,,,,,,,,,,,N1,A,21.4142599314893,92.0386736859574,Bridge,,,,
565,601,,SHORAR COOL,,,384.001,,,,,,,,,,,,,,,,,,,,,,N1,A,21.4124968430517,92.0395268517711,Bridge,,,,
566,602,,SOUTH MITTA CHORI,,,384.358,,,,,,,,,,,,,,,,,,,,,,N1,B,21.4110029325153,92.0443379558282,Bridge,,,,
567,603,,SOUTH MITHACHARI,,,384.788,,,,,,,,,,,,,,,,,,,,,,N1,B,21.4102488567901,92.0480366814814,Bridge,,,,
568,604,,SOUTH MITHACHARI,,,384.978,,,,,,,,,,,,,,,,,,,,,,N1,A,21.4102981858461,92.0496622239999,Bridge,,,,
569,605,,SOUTH MITTA CULVERT,,,385.237,,,,,,,,,,,,,,,,,,,,,,N1,A,21.4099236838827,92.0518884435897,Bridge,,,,
570,606,,SOUTH MITHACHARI,,,385.614,,,,,,,,,,,,,,,,,,,,,,N1,A,21.4088399161904,92.0550238095238,Bridge,,,,
571,607,,SOUTH MITHACHARI,,,385.78,,,,,,,,,,,,,,,,,,,,,,N1,A,21.4079574071005,92.0560124923076,Bridge,,,,
572,608,,SHAMMOTI PARA,,,386.07,,,,,,,,,,,,,,,,,,,,,,N1,D,21.4063607143344,92.0580467784983,Bridge,,,,
573,609,,CHALATOLI,,,386.494,,,,,,,,,,,,,,,,,,,,,,N1,A,21.4041499171641,92.0618387037313,Bridge,,,,
574,610,,CHALIYATOLI,,,386.968,,,,,,,,,,,,,,,,,,,,,,N1,A,21.402009374844,92.0647406251559,Bridge,,,,
575,611,,RAKALAN PARA STEEL BEAM AND RCC SLAB,,,387.23,,,,,,,,,,,,,,,,,,,,,,N1,C,21.4001878992395,92.0660829174905,Bridge,,,,
576,612,,CHALIYA TOLI -2 ARCH MASONRY,,,387.398,,,,,,,,,,,,,,,,,,,,,,N1,C,21.3987858977186,92.0665265524714,Bridge,,,,
577,613,,PANCHORI,,,387.843,,,,,,,,,,,,,,,,,,,,,,N1,A,21.3950144227586,92.0675884137931,Bridge,,,,
578,614,,PANCHORA STEEL BEAM AND RCC SLAB,,,388.328,,,,,,,,,,,,,,,,,,,,,,N1,C,21.3908555107438,92.0684757008264,Bridge,,,,
579,615,,PANAR CHORH -3 SLAB CULVERT,,,388.565,,,,,,,,,,,,,,,,,,,,,,N1,C,21.3888052,92.0689623,Bridge,,,,
580,616,,PANCHARA SLAB CULVERT,,,388.733,,,,,,,,,,,,,,,,,,,,,,N1,B,21.3874538459459,92.0697162891891,Bridge,,,,
581,617,,PANCHARA SLAB CULVERT,,,388.886,,,,,,,,,,,,,,,,,,,,,,N1,C,21.386218603409,92.0702884892045,Bridge,,,,
582,618,,PANCHARA SLAB CULVERT,,,388.956,,,,,,,,,,,,,,,,,,,,,,N1,C,21.3856411333333,92.0704543196078,Bridge,,,,
583,619,,PANAR CHORA SLAB CULVERT,,,389.101,,,,,,,,,,,,,,,,,,,,,,N1,B,21.3844064618421,92.0705223447368,Bridge,,,,
584,620,,PANCHORI SLAB CULVERT,,,389.258,,,,,,,,,,,,,,,,,,,,,,N1,B,21.3831050828947,92.0708809157894,Bridge,,,,
585,621,,PANCHARA SLAB CULVERT,,,389.282,,,,,,,,,,,,,,,,,,,,,,N1,A,21.3829076671052,92.0709510842105,Bridge,,,,
586,622,,PANCHORI,,,389.538,,,,,,,,,,,,,,,,,,,,,,N1,A,21.3808422435754,92.0709982664804,Bridge,,,,
587,623,,DALA -2 SLAB CULVERT,,,389.684,,,,,,,,,,,,,,,,,,,,,,N1,B,21.3796187798882,92.0706130385474,Bridge,,,,
588,624,,DALA-2 SLAB CULVERT,,,389.724,,,,,,,,,,,,,,,,,,,,,,N1,A,21.3793128,92.0704913857142,Bridge,,,,
589,625,,DALA-3 SLAB CULVERT,,,389.899,,,,,,,,,,,,,,,,,,,,,,N1,C,21.3778510915584,92.0703548240259,Bridge,,,,
590,626,,DALA SLAB CULVERT,,,390.047,,,,,,,,,,,,,,,,,,,,,,N1,A,21.3768882285714,92.0711223285714,Bridge,,,,
591,627,,DALA SLAB CULVERT,,,390.142,,,,,,,,,,,,,,,,,,,,,,N1,A,21.3762792890109,92.0717458313186,Bridge,,,,
592,628,,DHALLA SLAB CULVERT,,,390.356,,,,,,,,,,,,,,,,,,,,,,N1,C,21.3750850565217,92.0730282999999,Bridge,,,,
593,629,,PANAR CHORI SLAB CULVERT,,,390.506,,,,,,,,,,,,,,,,,,,,,,N1,A,21.3745372352601,92.0740615132948,Bridge,,,,
594,630,,PANAR HORA SLAB CULVERT,,,390.595,,,,,,,,,,,,,,,,,,,,,,N1,A,21.3743800190751,92.0748617416184,Bridge,,,,
595,631,,PANCR CHAR SLAB CULVERT,,,390.814,,,,,,,,,,,,,,,,,,,,,,N1,C,21.3737957588607,92.0766236613924,Bridge,,,,
596,632,,TULA BAGAN SLAB CULVERT,,,391.031,,,,,,,,,,,,,,,,,,,,,,N1,C,21.3724168458515,92.0778930973799,Bridge,,,,
597,633,,TULA BAGAN BOX CULVERT,,,391.255,,,,,,,,,,,,,,,,,,,,,,N1,A,21.3706902708737,92.0790672786407,Bridge,,,,
598,634,,TELA BAGAN SLAB CULVERT,,,391.373,,,,,,,,,,,,,,,,,,,,,,N1,A,21.3697436389312,92.0796434824427,Bridge,,,,
599,635,,TULA BAGAN.,,,391.521,,,,,,,,,,,,,,,,,,,,,,N1,A,21.3686452190839,92.0800514992366,Bridge,,,,
600,636,,PARARHORA CULVERT,,,391.664,,,,,,,,,,,,,,,,,,,,,,N1,B,21.367599241791,92.0804686731343,Bridge,,,,
601,637,,TULA BAGUN,,,391.997,,,,,,,,,,,,,,,,,,,,,,N1,C,21.3649267960264,92.0813617278145,Bridge,,,,
602,638,,TULA BAGAN,,,392.093,,,,,,,,,,,,,,,,,,,,,,N1,B,21.3641002252199,92.0813316052785,Bridge,,,,
603,639,,TOLA BAGAN,,,392.422,,,,,,,,,,,,,,,,,,,,,,N1,B,21.3613004264018,92.0805440936915,Bridge,,,,
604,640,,TULA BAGAN,,,392.526,,,,,,,,,,,,,,,,,,,,,,N1,A,21.3604702002336,92.0801526114486,Bridge,,,,
605,641,,NORTH-CONIAPARA,,,392.619,,,,,,,,,,,,,,,,,,,,,,N1,A,21.3597277864485,92.0798025359813,Bridge,,,,
606,642,,NORTH CONIAPARA,,,392.742,,,,,,,,,,,,,,,,,,,,,,N1,C,21.3587458843457,92.0793395329439,Bridge,,,,
607,643,,NORTH CONIA PARA BOX CULVERT,,,393.038,,,,,,,,,,,,,,,,,,,,,,N1,A,21.3562553024,92.0790827,Bridge,,,,
608,644,,WEST CONIARA,,,393.764,,,,,,,,,,,,,,,,,,,,,,N1,A,21.3500251952038,92.0784342935251,Bridge,,,,
609,645,,Modomconiara,,,393.764,,,,,,,,,,,,,,,,,,,,,,N1,C,21.3500251952038,92.0784342935251,Bridge,,,,
610,646,,CONIA PARA,,,394.307,,,,,,,,,,,,,,,,,,,,,,N1,C,21.3453322117757,92.0789703396261,Bridge,,,,
611,647,,KHONIA POLONG,,,394.681,,,,,,,,,,,,,,,,,,,,,,N1,A,21.3420893171962,92.0788538753271,Bridge,,,,
612,648,,KHONIA POLONG.,,,395.328,,,,,,,,,,,,,,,,,,,,,,N1,B,21.3365566114155,92.0789637010654,Bridge,,,,
613,649,,DOA PATONG,,,395.64,,,,,,,,,,,,,,,,,,,,,,N1,C,21.3338390771689,92.0790428645357,Bridge,,,,
614,650,,JASOYA PALONG,,,396.596,,,,,,,,,,,,,,,,,,,,,,N1,C,21.3269177037394,92.0819708735826,Bridge,,,,
615,651,,JASOYA PALONG RCC GIDER BRIDGE,,,397.144,,,,,,,,,,,,,,,,,,,,,,N1,C,21.3237869258823,92.0857429782352,Bridge,,,,
616,652,,MORICHIA,,,397.591,,,,,,,,,,,,,,,,,,,,,,N1,D,21.3211087823529,92.0888836352941,Bridge,,,,
617,653,,Jasoya check post.,,,397.679,,,,,,,,,,,,,,,,,,,,,,N1,B,21.3205831278931,92.0894967632047,Bridge,,,,
618,654,N1-66,Maricha Z1009-Ukhia Dakbanglo Z1503,LRP403,217.0,398.205,LRP413,300.0,408.434,10.229,24.0,455.0,137.0,129.0,200.0,568.0,131.0,142.0,2476.0,419.0,97.0,1042.0,0.0,4681.0,1139.0,5820.0,5820.0,N1,,21.317666,92.0930274,Road,Z1009,Z1503,,
619,655,,MARIECHA BAZAR,,,398.406,,,,,,,,,,,,,,,,,,,,,,N1,C,21.3162096661991,92.0939592732117,Bridge,,,,
620,656,,MORICHIA PALONG,,,399.452,,,,,,,,,,,,,,,,,,,,,,N1,B,21.308226843421,92.0972648315789,Bridge,,,,
621,657,,MORICHIA PALONG,,,400.027,,,,,,,,,,,,,,,,,,,,,,N1,C,21.3035165189189,92.0968487459459,Bridge,,,,
622,658,,SHAPUR STEEL BEAM AND RCC SLAB,,,400.46,,,,,,,,,,,,,,,,,,,,,,N1,D,21.2997453619819,92.0974772590991,Bridge,,,,
623,659,,SHAPUR,,,401.752,,,,,,,,,,,,,,,,,,,,,,N1,A,21.2887748,92.0999549688796,Bridge,,,,
624,660,,COTBAZR MUSLIM HOS,,,401.89,,,,,,,,,,,,,,,,,,,,,,N1,B,21.28755005,92.1000623912863,Bridge,,,,
625,661,,COURT BAZAR,,,402.323,,,,,,,,,,,,,,,,,,,,,,N1,A,21.2837382315436,92.1005546348993,Bridge,,,,
626,662,,RATNAPALANG,,,403.495,,,,,,,,,,,,,,,,,,,,,,N1,A,21.2740057908634,92.1044223449799,Bridge,,,,
627,663,,CHADIRIKHANA,,,403.509,,,,,,,,,,,,,,,,,,,,,,N1,A,21.2738921701807,92.1044785698795,Bridge,,,,
628,664,,CHADIRIKHANA,,,403.79,,,,,,,,,,,,,,,,,,,,,,N1,A,21.271611640763,92.1056070839357,Bridge,,,,
629,665,,EJILA,,,404.393,,,,,,,,,,,,,,,,,,,,,,N1,C,21.2676412724612,92.1091529913941,Bridge,,,,
630,666,,HIZOLIA BRIDGE,,,404.487,,,,,,,,,,,,,,,,,,,,,,N1,C,21.2671335430292,92.1098720509466,Bridge,,,,
631,667,,MODDO RAJAPALONG,,,404.774,,,,,,,,,,,,,,,,,,,,,,N1,C,21.2655833478485,92.1120674774526,Bridge,,,,
632,668,,JADIMURA BRIDGE,,,405.728,,,,,,,,,,,,,,,,,,,,,,N1,C,21.2600473697902,92.1189860875524,Bridge,,,,
633,669,,JADI MORA (2) CULVERT,,,405.969,,,,,,,,,,,,,,,,,,,,,,N1,A,21.2586242226573,92.1207179843356,Bridge,,,,
634,670,,JADIMORA (3),,,406.218,,,,,,,,,,,,,,,,,,,,,,N1,A,21.2570550964285,92.1224165035714,Bridge,,,,
635,671,,JADIMORA (1),,,406.517,,,,,,,,,,,,,,,,,,,,,,N1,A,21.2552064351464,92.1243872108786,Bridge,,,,
636,672,,WEST OGALA,,,406.791,,,,,,,,,,,,,,,,,,,,,,N1,C,21.2538028,92.12659709,Bridge,,,,
637,673,,OKYIA STATION,,,407.239,,,,,,,,,,,,,,,,,,,,,,N1,C,21.2504537,92.1307493,Bridge,,,,
638,674,,UKLIA-SHAHABMARKAT,,,407.785,,,,,,,,,,,,,,,,,,,,,,N1,C,21.2489644871959,92.1328410912932,Bridge,,,,
639,675,,UKHIYA BAZAR,,,408.235,,,,,,,,,,,,,,,,,,,,,,N1,B,21.2457262593333,92.1373042073333,Bridge,,,,
640,676,N1-67,Ukhia Dakbanglo Z1503 - Gundum Z1504,LRP413,300.0,408.434,LRP420,900.0,416.044,7.61,24.0,455.0,137.0,129.0,200.0,568.0,131.0,142.0,2476.0,419.0,97.0,1042.0,0.0,4681.0,1139.0,5820.0,5820.0,N1,,21.2447497,92.1389441,Road,Z1503,Z1504,,
641,677,,P. F PARA SLAB,,,411.81,,,,,,,,,,,,,,,,,,,,,,N1,A,21.2308784786138,92.1607571460396,Bridge,,,,
642,678,,KUTUB PALONG,,,412.008,,,,,,,,,,,,,,,,,,,,,,N1,C,21.2293155332673,92.1613561450495,Bridge,,,,
643,679,,KUTU - PALONG MOSZID SLAB,,,412.931,,,,,,,,,,,,,,,,,,,,,,N1,B,21.2215199757575,92.1617032590909,Bridge,,,,
644,680,,KOSHO - BINNA - BRIDGE,,,413.235,,,,,,,,,,,,,,,,,,,,,,N1,C,21.218960082,92.162077758,Bridge,,,,
645,681,,KASHO - BINNAI SLAB,,,413.43,,,,,,,,,,,,,,,,,,,,,,N1,C,21.21737604825,92.16248399175,Bridge,,,,
646,682,,KATU PALLANG SLAB,,,413.66,,,,,,,,,,,,,,,,,,,,,,N1,A,21.2160115861386,92.1636641564356,Bridge,,,,
647,683,,KUTUNG PALANG SLAB,,,413.901,,,,,,,,,,,,,,,,,,,,,,N1,A,21.2149359632653,92.1655512030612,Bridge,,,,
648,684,,KOSUKONA,,,414.0,,,,,,,,,,,,,,,,,,,,,,N1,A,21.2144308612244,92.1664067448979,Bridge,,,,
649,685,,BALAKHALI TV CENTER,,,415.056,,,,,,,,,,,,,,,,,,,,,,N1,A,21.2063047283582,92.1700180179104,Bridge,,,,
650,686,,BALUKHALI-2 SLAB,,,415.296,,,,,,,,,,,,,,,,,,,,,,N1,A,21.2043409872865,92.1703567258064,Bridge,,,,
651,687,,BALUKHALI KASTOM,,,415.574,,,,,,,,,,,,,,,,,,,,,,N1,A,21.2019671732447,92.1704006677419,Bridge,,,,
652,688,N1-68,GundumGundum Z1504 - Whykong Z1133,LRP420,900.0,416.044,LRP433,521.0,428.908,12.864,24.0,455.0,137.0,129.0,200.0,568.0,131.0,142.0,2476.0,419.0,97.0,1042.0,0.0,4681.0,1139.0,5820.0,5820.0,N1,,21.1977219,92.1705549,Road,Z1504,Z1133,,
653,689,,BALUKHALI OLD BUS STAND,,,416.057,,,,,,,,,,,,,,,,,,,,,,N1,A,21.197632418584,92.1705772646017,Bridge,,,,
654,690,,Balukali Old bus Stand Bridge,,,416.057,,,,,,,,,,,,,,,,,,,,,,N1,C,21.197632418584,92.1705772646017,Bridge,,,,
655,691,,BAKUHHALI KASHAMIA,,,416.354,,,,,,,,,,,,,,,,,,,,,,N1,A,21.1953155305785,92.1705074661157,Bridge,,,,
656,692,,Batukhali Bridge,,,416.966,,,,,,,,,,,,,,,,,,,,,,N1,A,21.1907730988505,92.1680703199233,Bridge,,,,
657,693,,BALUKHALI,,,416.966,,,,,,,,,,,,,,,,,,,,,,N1,B,21.1907730988505,92.1680703199233,Bridge,,,,
658,694,,Balukhali Boro Bridge,,,417.29,,,,,,,,,,,,,,,,,,,,,,N1,D,21.1888919350109,92.1658773557987,Bridge,,,,
659,695,,BALUKHAKI,,,417.29,,,,,,,,,,,,,,,,,,,,,,N1,D,21.1888919350109,92.1658773557987,Bridge,,,,
660,696,,GOGU GONA,,,418.231,,,,,,,,,,,,,,,,,,,,,,N1,A,21.1839744314735,92.1593026449213,Bridge,,,,
661,697,,THANGKHALI BOX CULVERT,,,418.76,,,,,,,,,,,,,,,,,,,,,,N1,C,21.1797067107296,92.1578310562231,Bridge,,,,
662,698,,THANG KHALI BOX CULVERT,,,419.036,,,,,,,,,,,,,,,,,,,,,,N1,B,21.177417156701,92.1570372113402,Bridge,,,,
663,699,,THANG KHALI BRIDGE,,,419.278,,,,,,,,,,,,,,,,,,,,,,N1,C,21.1754208098765,92.1562526135802,Bridge,,,,
664,700,,Thang Khali Bridge,,,419.278,,,,,,,,,,,,,,,,,,,,,,N1,D,21.1754208098765,92.1562526135802,Bridge,,,,
665,701,,Changkhali Bridge,,,419.63,,,,,,,,,,,,,,,,,,,,,,N1,A,21.1724828063829,92.1552940329787,Bridge,,,,
666,702,,CHANG KHALI BRIDGE,,,419.63,,,,,,,,,,,,,,,,,,,,,,N1,C,21.1724828063829,92.1552940329787,Bridge,,,,
667,703,,Changkhali Boro Bridge,,,419.88,,,,,,,,,,,,,,,,,,,,,,N1,A,21.1703723502057,92.1547387765432,Bridge,,,,
668,704,,CHANG KHALI BRIDGE,,,419.88,,,,,,,,,,,,,,,,,,,,,,N1,B,21.1703723502057,92.1547387765432,Bridge,,,,
669,705,,JAM TOLI BRIDGE,,,420.093,,,,,,,,,,,,,,,,,,,,,,N1,B,21.1688213638709,92.153662396129,Bridge,,,,
670,706,,Jam Toli Bridge,,,420.093,,,,,,,,,,,,,,,,,,,,,,N1,C,21.1688213638709,92.153662396129,Bridge,,,,
671,707,,JAM TOLI BOX CULVERT,,,420.18,,,,,,,,,,,,,,,,,,,,,,N1,A,21.168232930909,92.1531459818181,Bridge,,,,
672,708,,DAIM PARA BRIDGE,,,420.406,,,,,,,,,,,,,,,,,,,,,,N1,B,21.1666653482213,92.1523376486166,Bridge,,,,
673,709,,DAIM PARA CULVERT,,,420.537,,,,,,,,,,,,,,,,,,,,,,N1,C,21.1655725596837,92.1522082019762,Bridge,,,,
674,710,,DAIM PARA CULVERT,,,420.606,,,,,,,,,,,,,,,,,,,,,,N1,A,21.16498780625,92.152190071875,Bridge,,,,
675,711,,DAIM PARA CULVERT,,,420.952,,,,,,,,,,,,,,,,,,,,,,N1,C,21.1619757444915,92.1523314669491,Bridge,,,,
676,712,,DAIM PARA CULVERT,,,421.156,,,,,,,,,,,,,,,,,,,,,,N1,A,21.1602045009259,92.1525257175926,Bridge,,,,
677,713,,PALONG KHALI CULVERT,,,421.358,,,,,,,,,,,,,,,,,,,,,,N1,C,21.1584534746478,92.1525195633802,Bridge,,,,
678,714,,PALONG KHALI BAZAR (1),,,422.081,,,,,,,,,,,,,,,,,,,,,,N1,C,21.1524632792452,92.1534145867924,Bridge,,,,
679,715,,PALONG KHALI BAZAR BRIDGE,,,422.447,,,,,,,,,,,,,,,,,,,,,,N1,C,21.1498906490706,92.1552156215613,Bridge,,,,
680,716,,Palong Khali Bazar Bridge,,,422.447,,,,,,,,,,,,,,,,,,,,,,N1,C,21.1498906490706,92.1552156215613,Bridge,,,,
681,717,,Palong Khali Bridge,,,422.784,,,,,,,,,,,,,,,,,,,,,,N1,A,21.1477676743494,92.1570426250929,Bridge,,,,
682,718,,PALONG KHALI RCC GIDER BRIDGE,,,422.784,,,,,,,,,,,,,,,,,,,,,,N1,C,21.1477676743494,92.1570426250929,Bridge,,,,
683,719,,KARUN TOLI RCC GIDER BRIDGE,,,423.442,,,,,,,,,,,,,,,,,,,,,,N1,B,21.1425462548387,92.159429216129,Bridge,,,,
684,720,,GIRA TALI RCC GIDER BRIDGE,,,423.67,,,,,,,,,,,,,,,,,,,,,,N1,C,21.1408647661691,92.1605222283582,Bridge,,,,
685,721,,Karontoli Bridge,,,423.67,,,,,,,,,,,,,,,,,,,,,,N1,C,21.1408647661691,92.1605222283582,Bridge,,,,
686,722,,GIVATOLI RCC GIDER BRIDGE,,,423.804,,,,,,,,,,,,,,,,,,,,,,N1,A,21.140210455058,92.1615530950248,Bridge,,,,
687,723,,GIVA TOLI RCC GIDER BRIDGE,,,424.075,,,,,,,,,,,,,,,,,,,,,,N1,A,21.1388871840796,92.1636379074626,Bridge,,,,
688,724,,GIVA TOLI BOX CULVERT,,,424.271,,,,,,,,,,,,,,,,,,,,,,N1,A,21.1380664956896,92.1651978,Bridge,,,,
689,725,,GIVATOLI RCC GIDER BRIDGE,,,424.395,,,,,,,,,,,,,,,,,,,,,,N1,C,21.1379210829268,92.1663534195121,Bridge,,,,
690,726,,Kata Khali Bridge,,,424.577,,,,,,,,,,,,,,,,,,,,,,N1,D,21.1376124564885,92.1680587053435,Bridge,,,,
691,727,,KATA KHALI RCC GIDER BRIDGE,,,424.577,,,,,,,,,,,,,,,,,,,,,,N1,D,21.1376124564885,92.1680587053435,Bridge,,,,
692,728,,ULI BANIA BOX CULVERT,,,424.783,,,,,,,,,,,,,,,,,,,,,,N1,C,21.1373350498154,92.1700112125461,Bridge,,,,
693,729,,KHARA KANDI RCC GIDER BRIDGE,,,425.267,,,,,,,,,,,,,,,,,,,,,,N1,B,21.1366125359375,92.1745027796875,Bridge,,,,
694,730,,Porbo Kata Khali Bridge,,,425.267,,,,,,,,,,,,,,,,,,,,,,N1,C,21.1366125359375,92.1745027796875,Bridge,,,,
695,731,,ULUBANIA RCC GIDER BRIDGE,,,425.455,,,,,,,,,,,,,,,,,,,,,,N1,A,21.1360412976525,92.1760569938967,Bridge,,,,
696,732,,ULIBANIA BOX CULVERT,,,425.715,,,,,,,,,,,,,,,,,,,,,,N1,C,21.1349149157894,92.1779379605263,Bridge,,,,
697,733,,DMONIR GONA RCC GIDER BRIDGE,,,425.882,,,,,,,,,,,,,,,,,,,,,,N1,A,21.1342388024291,92.179158717004,Bridge,,,,
698,734,,BALUR KHALI -(1) RCC GIDER BRIDGE,,,426.555,,,,,,,,,,,,,,,,,,,,,,N1,B,21.1318968873563,92.1846917362069,Bridge,,,,
699,735,,BALU KHALI -2 BOX CULVERT,,,426.881,,,,,,,,,,,,,,,,,,,,,,N1,C,21.1299737216216,92.1868158522522,Bridge,,,,
700,736,,BALU KHALI-3 BOX CULVERT,,,426.915,,,,,,,,,,,,,,,,,,,,,,N1,B,21.1297680981982,92.1870470012012,Bridge,,,,
701,737,,Balu Khali Bridge,,,426.915,,,,,,,,,,,,,,,,,,,,,,N1,D,21.1297680981982,92.1870470012012,Bridge,,,,
702,738,,W HIME KANG BOX CULVERT,,,427.041,,,,,,,,,,,,,,,,,,,,,,N1,A,21.1290060819819,92.187903612012,Bridge,,,,
703,739,,WHIKE KANG BOX CULVERT,,,427.154,,,,,,,,,,,,,,,,,,,,,,N1,A,21.1283226864864,92.1886718423423,Bridge,,,,
704,740,,WHIKE KANG BOX CULVERT,,,427.231,,,,,,,,,,,,,,,,,,,,,,N1,B,21.1278570099099,92.1891953267267,Bridge,,,,
705,741,,wheke kang (1),,,427.622,,,,,,,,,,,,,,,,,,,,,,N1,A,21.125103688724,92.1913674700296,Bridge,,,,
706,742,,Wheke Kang Bridge,,,427.622,,,,,,,,,,,,,,,,,,,,,,N1,D,21.125103688724,92.1913674700296,Bridge,,,,
707,743,,WHIKE KANG BRIDGE,,,427.804,,,,,,,,,,,,,,,,,,,,,,N1,A,21.1237604940298,92.1921588880597,Bridge,,,,
708,744,,MOA EX-KANG-BAZAR,,,427.918,,,,,,,,,,,,,,,,,,,,,,N1,C,21.1229108079646,92.1927223495575,Bridge,,,,
709,745,,Moa Ex Kang Bridge,,,427.918,,,,,,,,,,,,,,,,,,,,,,N1,C,21.1229108079646,92.1927223495575,Bridge,,,,
710,746,,HOA EX KANG BAZAE,,,427.969,,,,,,,,,,,,,,,,,,,,,,N1,A,21.1225347168141,92.1929605601769,Bridge,,,,
711,747,,Hoacx Kang Barbar Bridge,,,428.095,,,,,,,,,,,,,,,,,,,,,,N1,B,21.1215698917647,92.1935169658823,Bridge,,,,
712,748,,HOACX KANG BARAR,,,428.095,,,,,,,,,,,,,,,,,,,,,,N1,C,21.1215698917647,92.1935169658823,Bridge,,,,
713,749,,AMTULI BOX CULVERT,,,428.578,,,,,,,,,,,,,,,,,,,,,,N1,A,21.1184609383419,92.1962922290155,Bridge,,,,
714,750,,TASSI-PARA BAR,,,428.89,,,,,,,,,,,,,,,,,,,,,,N1,A,21.1159743461538,92.1970744923076,Bridge,,,,
715,751,N1-69,Whykong Z1133 - Teknaf,LRP433,521.0,428.908,LRP467,130.0,462.254,33.346,24.0,455.0,137.0,129.0,200.0,568.0,131.0,142.0,2476.0,419.0,97.0,1042.0,0.0,4681.0,1139.0,5820.0,5820.0,N1,,21.1158333,92.1971386,Road,Z1133,,,
716,752,,TAS SE BRIDGE HOANGK,,,429.081,,,,,,,,,,,,,,,,,,,,,,N1,B,21.1145580496021,92.1980208315649,Bridge,,,,
717,753,,Tasse Bridge,,,429.081,,,,,,,,,,,,,,,,,,,,,,N1,D,21.1145580496021,92.1980208315649,Bridge,,,,
718,754,,LAMBA-BIL PORA,,,429.491,,,,,,,,,,,,,,,,,,,,,,N1,A,21.1118930148936,92.2005928021276,Bridge,,,,
719,755,,LAMBABIL MIDDLE PARA,,,429.615,,,,,,,,,,,,,,,,,,,,,,N1,A,21.1108101507936,92.2020956942857,Bridge,,,,
720,756,,LAMBABIL MIDDLE,,,429.719,,,,,,,,,,,,,,,,,,,,,,N1,A,21.1098838904761,92.2033796485714,Bridge,,,,
721,757,,LAMBA - BIL - (1) BOX CULVERT,,,429.912,,,,,,,,,,,,,,,,,,,,,,N1,A,21.108771344186,92.2048378697674,Bridge,,,,
722,758,,LAM BA BIL (2) BOX CULVERT,,,430.072,,,,,,,,,,,,,,,,,,,,,,N1,A,21.1083165348837,92.2053339813953,Bridge,,,,
723,759,,LAMBA BIL (3) BOX CULVERT,,,430.287,,,,,,,,,,,,,,,,,,,,,,N1,A,21.1078333,92.2061073045454,Bridge,,,,
724,760,,LAMBA BIL BOX,,,430.582,,,,,,,,,,,,,,,,,,,,,,N1,C,21.1052944333333,92.20739816,Bridge,,,,
725,761,,UNCHI - PRANG BRIDGE,,,430.978,,,,,,,,,,,,,,,,,,,,,,N1,A,21.1020295703488,92.2079394552325,Bridge,,,,
726,762,,Unchi-Prong Bridge,,,430.978,,,,,,,,,,,,,,,,,,,,,,N1,C,21.1020295703488,92.2079394552325,Bridge,,,,
727,763,,ON SIFAPAING BOX CULVERT,,,431.167,,,,,,,,,,,,,,,,,,,,,,N1,A,21.1005774145454,92.208578050909,Bridge,,,,
728,764,,UNCHING OPLONG CULVERT (1),,,431.398,,,,,,,,,,,,,,,,,,,,,,N1,A,21.0988710315789,92.2096579157894,Bridge,,,,
729,765,,KUTUB DIA PARA (1) CULVERT,,,431.877,,,,,,,,,,,,,,,,,,,,,,N1,A,21.0950312659147,92.2114600974937,Bridge,,,,
730,766,,KUTUB DIA PARA CULVERT,,,431.946,,,,,,,,,,,,,,,,,,,,,,N1,A,21.0944452155388,92.2116762629072,Bridge,,,,
731,767,,KUTUB - DIA PARA (3),,,432.19,,,,,,,,,,,,,,,,,,,,,,N1,A,21.0923827310126,92.2123111474683,Bridge,,,,
732,768,,KANGOR PARA,,,432.411,,,,,,,,,,,,,,,,,,,,,,N1,A,21.0905260238297,92.2128845902127,Bridge,,,,
733,769,,KANGOR PARA MOZGID,,,432.62,,,,,,,,,,,,,,,,,,,,,,N1,A,21.088867034104,92.213695567052,Bridge,,,,
734,770,,KHAN GIOR PARA (1),,,432.865,,,,,,,,,,,,,,,,,,,,,,N1,A,21.0869591497109,92.2148363748555,Bridge,,,,
735,771,,KHANGOR PRAMARY (2),,,432.924,,,,,,,,,,,,,,,,,,,,,,N1,A,21.0864997,92.2151111,Bridge,,,,
736,772,,Khan Gor Para Bridge,,,433.178,,,,,,,,,,,,,,,,,,,,,,N1,A,21.0844125039525,92.2159198454545,Bridge,,,,
737,773,,KHAN GOR PARA BRIDGE,,,433.178,,,,,,,,,,,,,,,,,,,,,,N1,B,21.0844125039525,92.2159198454545,Bridge,,,,
738,774,,RHANCHOR PARA BOX CULVERT,,,433.441,,,,,,,,,,,,,,,,,,,,,,N1,A,21.0822419459459,92.2166012177177,Bridge,,,,
739,775,,KHANCHOR PARA (2),,,433.665,,,,,,,,,,,,,,,,,,,,,,N1,A,21.0804429857142,92.2174040714285,Bridge,,,,
740,776,,KHANCHOR PARA- BOX CULVERT,,,433.826,,,,,,,,,,,,,,,,,,,,,,N1,A,21.079224345977,92.2181232950191,Bridge,,,,
741,777,,NOYA PARA (1) BOX CULVERT,,,434.124,,,,,,,,,,,,,,,,,,,,,,N1,A,21.077282565,92.2199300692307,Bridge,,,,
742,778,,NOYA PARA (1) BRIDGE,,,434.37,,,,,,,,,,,,,,,,,,,,,,N1,C,21.0757171602316,92.2214353972973,Bridge,,,,
743,779,,NAYAPARA,,,434.573,,,,,,,,,,,,,,,,,,,,,,N1,A,21.0741777849315,92.2222489445205,Bridge,,,,
744,780,,NOYA PARA,,,434.831,,,,,,,,,,,,,,,,,,,,,,N1,A,21.0724929467032,92.2235128087912,Bridge,,,,
745,781,,GIMON KHALI BRIDGE,,,435.013,,,,,,,,,,,,,,,,,,,,,,N1,B,21.071231875641,92.2242923685897,Bridge,,,,
746,782,,GIM - MOGARI BRIDGE,,,435.22,,,,,,,,,,,,,,,,,,,,,,N1,C,21.0695363333333,92.2245687666666,Bridge,,,,
747,783,,Gim-mogari Bridge,,,435.22,,,,,,,,,,,,,,,,,,,,,,N1,C,21.0695363333333,92.2245687666666,Bridge,,,,
748,784,,NINA BAZAR BOX CULVERT,,,435.748,,,,,,,,,,,,,,,,,,,,,,N1,A,21.0650398482758,92.2245345498084,Bridge,,,,
749,785,,NOYA BAZAR BRIDGE,,,436.388,,,,,,,,,,,,,,,,,,,,,,N1,B,21.0598736617647,92.2263822093137,Bridge,,,,
750,786,,Noya Bazar(1) Bridge,,,436.388,,,,,,,,,,,,,,,,,,,,,,N1,C,21.0598736617647,92.2263822093137,Bridge,,,,
751,787,,NOYA BAZAR CULVERT,,,436.6,,,,,,,,,,,,,,,,,,,,,,N1,C,21.0579897631578,92.226509045614,Bridge,,,,
752,788,,NAYA BAZAR BRIDGE,,,436.789,,,,,,,,,,,,,,,,,,,,,,N1,B,21.0562943527173,92.2266452831521,Bridge,,,,
753,789,,Naya Bazar(2) Bridge,,,436.789,,,,,,,,,,,,,,,,,,,,,,N1,D,21.0562943527173,92.2266452831521,Bridge,,,,
754,790,,NAYA BAZAR BRIDGE,,,437.063,,,,,,,,,,,,,,,,,,,,,,N1,B,21.0542867597222,92.2274586981481,Bridge,,,,
755,791,,Naya Bazar(3) Bridge,,,437.063,,,,,,,,,,,,,,,,,,,,,,N1,C,21.0542867597222,92.2274586981481,Bridge,,,,
756,792,,KHARANG KHALI - BOX CUVERT (1),,,437.484,,,,,,,,,,,,,,,,,,,,,,N1,C,21.0519406592592,92.2296964950617,Bridge,,,,
757,793,,KHARANG KHAIL,,,437.961,,,,,,,,,,,,,,,,,,,,,,N1,C,21.0508486063492,92.233513137037,Bridge,,,,
758,794,,MOULIVI BAZAR FISHARI BRIDGE,,,438.506,,,,,,,,,,,,,,,,,,,,,,N1,C,21.0464598480314,92.23512063937,Bridge,,,,
759,795,,MOULOVI BAZAR BOX CULVERT (1),,,439.007,,,,,,,,,,,,,,,,,,,,,,N1,C,21.0422652012594,92.2367552062972,Bridge,,,,
760,796,,MOULOVI BAZAR BOX CULVERT,,,439.235,,,,,,,,,,,,,,,,,,,,,,N1,C,21.0404408514814,92.2376541207407,Bridge,,,,
761,797,,ALI AXBAR PARA BOX CULVERT,,,439.579,,,,,,,,,,,,,,,,,,,,,,N1,A,21.0376449596296,92.2390520348148,Bridge,,,,
762,798,,NILA - HOAB RABG BRIDGE,,,440.028,,,,,,,,,,,,,,,,,,,,,,N1,B,21.0340308457564,92.2407063719557,Bridge,,,,
763,799,,Nila-Hoab Rabg Bridge,,,440.028,,,,,,,,,,,,,,,,,,,,,,N1,C,21.0340308457564,92.2407063719557,Bridge,,,,
764,800,,NILLA BOX CULVERT (1),,,440.724,,,,,,,,,,,,,,,,,,,,,,N1,A,21.0279544680791,92.2415858245762,Bridge,,,,
765,801,,NILA. BARAR BOX CULVERT,,,440.977,,,,,,,,,,,,,,,,,,,,,,N1,A,21.0256598717703,92.2418041698564,Bridge,,,,
766,802,,NILA - DORGA- PARA-(1) BOX,,,441.666,,,,,,,,,,,,,,,,,,,,,,N1,A,21.0198087471074,92.2428140276859,Bridge,,,,
767,803,,NILA DOGA PARA BOX CULVERT,,,441.974,,,,,,,,,,,,,,,,,,,,,,N1,A,21.0173417560386,92.2438384763284,Bridge,,,,
768,804,,NAT MURA PARA BOX CULVERT,,,442.161,,,,,,,,,,,,,,,,,,,,,,N1,A,21.015929034375,92.2447567,Bridge,,,,
769,805,,CHOUDORIY PARA RCC GIDER BRIDGE,,,443.024,,,,,,,,,,,,,,,,,,,,,,N1,B,21.0097686468354,92.2495377240506,Bridge,,,,
770,806,,Chowdhory Para Bridge,,,443.024,,,,,,,,,,,,,,,,,,,,,,N1,C,21.0097686468354,92.2495377240506,Bridge,,,,
771,807,,RONGI HALI BOX CULVERT,,,443.564,,,,,,,,,,,,,,,,,,,,,,N1,B,21.0058252962264,92.252279838915,Bridge,,,,
772,808,,RONGI- KHALI RCC GIDER BRIDGE,,,444.315,,,,,,,,,,,,,,,,,,,,,,N1,C,20.9994058966292,92.2537214265168,Bridge,,,,
773,809,,Rongi-Khali Bridge,,,444.315,,,,,,,,,,,,,,,,,,,,,,N1,C,20.9994058966292,92.2537214265168,Bridge,,,,
774,810,,ALA KHALI KUNA PARA,,,445.478,,,,,,,,,,,,,,,,,,,,,,N1,C,20.9893582625336,92.2545712327493,Bridge,,,,
775,811,,Ala Khali Kuna Para Bridge,,,445.478,,,,,,,,,,,,,,,,,,,,,,N1,C,20.9893582625336,92.2545712327493,Bridge,,,,
776,812,,LADA BAZAR BOX CULVERT,,,446.435,,,,,,,,,,,,,,,,,,,,,,N1,C,20.9813317189461,92.2521134830717,Bridge,,,,
777,813,,Ladapara Bridge,,,446.71,,,,,,,,,,,,,,,,,,,,,,N1,A,20.9790279773542,92.2512228468609,Bridge,,,,
778,814,,LADAPARA RCC GIDER BRIDGE,,,446.71,,,,,,,,,,,,,,,,,,,,,,N1,C,20.9790279773542,92.2512228468609,Bridge,,,,
779,815,,NAYAPARA BOX CULVERT,,,447.084,,,,,,,,,,,,,,,,,,,,,,N1,A,20.9759372216027,92.2499898655052,Bridge,,,,
780,816,,NOYAPARA RCC GIDER BRIDGE,,,447.401,,,,,,,,,,,,,,,,,,,,,,N1,B,20.9732781770034,92.2493761152148,Bridge,,,,
781,817,,Noya Para Bridge,,,447.401,,,,,,,,,,,,,,,,,,,,,,N1,C,20.9732781770034,92.2493761152148,Bridge,,,,
782,818,,NAYA PARA BOX CULVERT,,,447.893,,,,,,,,,,,,,,,,,,,,,,N1,A,20.9691570827586,92.2486529011494,Bridge,,,,
783,819,,MOSINNI RCC GIDER BRIDGE,,,448.054,,,,,,,,,,,,,,,,,,,,,,N1,B,20.967853415126,92.2489720949579,Bridge,,,,
784,820,,Mosinni Mor Bridge,,,448.054,,,,,,,,,,,,,,,,,,,,,,N1,B,20.967853415126,92.2489720949579,Bridge,,,,
785,821,,NOYA PARA CULVERT,,,448.391,,,,,,,,,,,,,,,,,,,,,,N1,A,20.9655685949554,92.2508723928783,Bridge,,,,
786,822,,NOYA PARA CULVERT,,,448.481,,,,,,,,,,,,,,,,,,,,,,N1,A,20.9649678916913,92.2514288706231,Bridge,,,,
787,823,,NOYA PARA (MUSJID) BOX CULVERT(L),,,448.581,,,,,,,,,,,,,,,,,,,,,,N1,A,20.9641892820433,92.2518817702786,Bridge,,,,
788,824,,NOYA PARA BOX CULVERT(R),,,448.581,,,,,,,,,,,,,,,,,,,,,,N1,A,20.9641892820433,92.2518817702786,Bridge,,,,
789,825,,Noya Para Bridge,,,448.926,,,,,,,,,,,,,,,,,,,,,,N1,A,20.9614231446428,92.2532539928571,Bridge,,,,
790,826,,NOYA PARA (BRAC SCHOOL),,,448.926,,,,,,,,,,,,,,,,,,,,,,N1,A,20.9614231446428,92.2532539928571,Bridge,,,,
791,827,,JADIMURA (NOYA PARA)BRIDGE,,,449.101,,,,,,,,,,,,,,,,,,,,,,N1,B,20.9599449953642,92.2537187390728,Bridge,,,,
792,828,,Jadirghat Bridge,,,449.101,,,,,,,,,,,,,,,,,,,,,,N1,C,20.9599449953642,92.2537187390728,Bridge,,,,
793,829,,JADIMORH BOX CULVERT,,,449.439,,,,,,,,,,,,,,,,,,,,,,N1,A,20.9571000129411,92.2546526588235,Bridge,,,,
794,830,,Jadimura bridge,,,449.7,,,,,,,,,,,,,,,,,,,,,,N1,A,20.9549388422619,92.2555312529762,Bridge,,,,
795,831,,JADIMURA BRIDGE.,,,449.7,,,,,,,,,,,,,,,,,,,,,,N1,A,20.9549388422619,92.2555312529762,Bridge,,,,
796,832,,Umor khali Bridge,,,450.446,,,,,,,,,,,,,,,,,,,,,,N1,A,20.9491451322709,92.2584208880478,Bridge,,,,
797,833,,DOMDO MIA BRIDGE,,,450.446,,,,,,,,,,,,,,,,,,,,,,N1,C,20.9491451322709,92.2584208880478,Bridge,,,,
798,834,,DONDO MIA BOX CULVERT,,,450.599,,,,,,,,,,,,,,,,,,,,,,N1,A,20.9481536869565,92.2592633282608,Bridge,,,,
799,835,,DONDO MIA BOX CULVERT,,,450.759,,,,,,,,,,,,,,,,,,,,,,N1,A,20.9470947924242,92.2597883075757,Bridge,,,,
800,836,,DOMMO MIA BOX CULVERT,,,450.943,,,,,,,,,,,,,,,,,,,,,,N1,A,20.9458507925133,92.2603333,Bridge,,,,
801,837,,DHANDO MIA,,,451.328,,,,,,,,,,,,,,,,,,,,,,N1,C,20.9427885228723,92.260596812234,Bridge,,,,
802,838,,Dhando Mia Bridge,,,451.328,,,,,,,,,,,,,,,,,,,,,,N1,C,20.9427885228723,92.260596812234,Bridge,,,,
803,839,,DONDO MIA CHAK POST BRIDGE,,,451.984,,,,,,,,,,,,,,,,,,,,,,N1,B,20.93730526,92.26237497,Bridge,,,,
804,840,,Dondo Mia Checkpost Bridge,,,451.984,,,,,,,,,,,,,,,,,,,,,,N1,B,20.93730526,92.26237497,Bridge,,,,
805,841,,Domodia Bridge(1),,,452.561,,,,,,,,,,,,,,,,,,,,,,N1,A,20.9324260319587,92.2636134,Bridge,,,,
806,842,,DOMDO MIA BRIDGE,,,452.561,,,,,,,,,,,,,,,,,,,,,,N1,B,20.9324260319587,92.2636134,Bridge,,,,
807,843,,Domdomia Bridge(2),,,452.624,,,,,,,,,,,,,,,,,,,,,,N1,A,20.9318757724226,92.263712625,Bridge,,,,
808,844,,DOMDO MIA,,,452.624,,,,,,,,,,,,,,,,,,,,,,N1,B,20.9318757724226,92.263712625,Bridge,,,,
809,845,,DONDOMIA,,,452.793,,,,,,,,,,,,,,,,,,,,,,N1,A,20.9303996793814,92.2639787999999,Bridge,,,,
810,846,,DONOMIA,,,453.05,,,,,,,,,,,,,,,,,,,,,,N1,C,20.9281373875,92.264301196875,Bridge,,,,
811,847,,Domdomia Bridge (3),,,453.05,,,,,,,,,,,,,,,,,,,,,,N1,C,20.9281373875,92.264301196875,Bridge,,,,
812,848,,DONMIA,,,453.372,,,,,,,,,,,,,,,,,,,,,,N1,D,20.9253890280839,92.2649451585301,Bridge,,,,
813,849,,KARUMTOLI,,,453.95,,,,,,,,,,,,,,,,,,,,,,N1,B,20.9209276456603,92.2674528079245,Bridge,,,,
814,850,,Karumtoli Bridge,,,453.95,,,,,,,,,,,,,,,,,,,,,,N1,C,20.9209276456603,92.2674528079245,Bridge,,,,
815,851,,KARUNTON BOX CULVERT,,,454.219,,,,,,,,,,,,,,,,,,,,,,N1,A,20.9188881999999,92.26870765,Bridge,,,,
816,852,,Karumtoli choto(1) Bridge,,,454.33,,,,,,,,,,,,,,,,,,,,,,N1,A,20.91799614,92.2691008942857,Bridge,,,,
817,853,,KARUM TOLI SHOTHA (1),,,454.33,,,,,,,,,,,,,,,,,,,,,,N1,A,20.91799614,92.2691008942857,Bridge,,,,
818,854,,SHOLO BANDOR TAKNAF,,,454.498,,,,,,,,,,,,,,,,,,,,,,N1,A,20.9167064980392,92.2698571431372,Bridge,,,,
819,855,,Sholo Bandar Teknaf Bridge,,,454.498,,,,,,,,,,,,,,,,,,,,,,N1,C,20.9167064980392,92.2698571431372,Bridge,,,,
820,856,,KAKUM TOLI CHACK BOX CULVERT,,,454.673,,,,,,,,,,,,,,,,,,,,,,N1,B,20.9153707224137,92.2707239706896,Bridge,,,,
